pc_timestamp,mode,temperature,control_voltage,power_current,water_leak,sensor_status,sensor_update,fault_status,power_status,force_cmd1,force_cmd2,force_cmd3,force_cmd4,force_cmd5,force_cmd6,roll,pitch,yaw,angular_vel_x,angular_vel_y,angular_vel_z,linear_vel_x,linear_vel_y,linear_vel_z,longitude,latitude,depth_raw,depth_lpf,depth_ma,altitude,target_longitude,target_latitude,target_depth,target_roll,target_pitch,target_yaw,target_altitude,target_speed,utc_year,utc_month,utc_day,utc_hour,utc_minute,utc_second
1753864350.624868,4,4.18,22.70,2.73,0,1100000,11100,000100000,-32765,0,0,0,0,0,0,-2.02,2.11,2.73,0.16,0.00,-0.08,0.00,0.00,0.00,122.0896454,37.5442260,0.221,0.221,0.221,0.000,122.0896450,37.5442263,0.037,0.00,1.50,-6.98,-0.000,620.36,25,7,4,0,48,41.0
1753864350.625840,4,4.18,22.70,2.73,0,1100000,11100,000100000,-32765,0,0,0,0,0,0,-2.01,2.13,2.74,0.18,0.08,-0.07,0.00,0.00,0.00,122.0896454,37.5442260,0.232,0.223,0.226,0.000,122.0896450,37.5442263,0.037,0.00,1.50,-6.98,-0.000,620.36,25,7,4,0,48,41.0
1753864350.626740,4,4.18,22.70,2.75,0,1100000,11100,000100000,-32765,0,0,0,0,0,0,-2.00,2.15,2.74,0.19,0.15,-0.05,0.00,0.00,0.00,122.0896454,37.5442260,0.202,0.219,0.218,0.000,122.0896450,37.5442263,0.037,0.00,1.50,-6.98,40089450232217754822333238870016.000,620.36,25,7,4,0,48,41.0
1753864350.631018,4,4.18,22.70,2.75,0,1100000,11100,000100000,-32765,0,0,0,0,0,0,-1.97,2.19,2.74,0.20,0.14,0.02,0.00,0.00,0.00,122.0896454,37.5442260,0.202,0.215,0.214,0.000,122.0896450,37.5442263,0.037,0.00,1.50,-6.98,129536.000,620.36,25,7,4,0,48,41.0
1753864350.633981,4,4.18,22.60,3.08,0,1100000,11100,000100000,-32765,0,0,0,0,0,0,-1.95,2.21,2.74,0.13,0.20,0.05,0.00,0.00,0.00,122.0896454,37.5442260,0.204,0.213,0.212,0.000,122.0896450,37.5442263,0.037,0.00,1.50,-6.98,0.000,620.36,25,7,4,0,48,41.0
1753864350.635412,4,4.18,22.70,2.86,0,1100000,11100,000100000,-32765,0,0,0,0,0,0,-1.93,2.22,2.73,0.11,0.14,0.09,0.00,0.00,0.00,122.0896454,37.5442260,0.206,0.212,0.209,0.000,122.0896450,37.5442263,0.037,0.00,1.50,-6.98,0.000,620.36,25,7,4,0,48,41.0
1753864350.650760,4,4.18,22.70,2.86,0,1100000,11100,000100000,-32765,0,0,0,0,0,0,-1.93,2.23,2.71,0.08,0.06,0.10,0.00,0.00,0.00,122.0896454,37.5442260,0.208,0.211,0.204,0.000,122.0896450,37.5442263,0.037,0.00,1.50,-6.98,0.000,620.36,25,7,4,0,48,41.0
1753864350.653193,4,4.18,22.70,2.76,0,1100000,11100,000100000,-32765,0,0,0,0,0,0,-1.92,2.23,2.71,0.04,0.01,0.06,0.00,0.00,0.00,122.0896454,37.5442260,0.203,0.209,0.205,0.000,122.0896450,37.5442263,0.037,0.00,1.50,-6.98,0.000,620.36,25,7,4,0,48,41.0
1753864350.654696,4,4.18,22.70,2.76,0,1100000,11100,000100000,-32765,0,0,0,0,0,0,-1.92,2.23,2.70,-0.12,0.09,0.01,0.00,0.00,0.00,122.0896454,37.5442260,0.201,0.208,0.204,0.000,122.0896450,37.5442263,0.037,0.00,1.50,-6.98,0.000,620.36,25,7,4,0,48,42.0
1753864350.656187,4,4.18,22.70,2.69,0,1100000,11100,000100000,-32765,0,0,0,0,0,0,-1.90,2.21,2.70,-0.11,0.19,0.02,0.00,0.00,0.00,122.0896454,37.5442260,0.216,0.209,0.207,0.000,122.0896450,37.5442263,0.037,0.00,1.50,-6.98,0.000,620.36,25,7,4,0,48,42.0
1753864350.657502,4,4.18,22.70,2.71,0,1100000,11100,000100000,-32765,0,0,0,0,0,0,-1.88,2.21,2.70,-0.06,0.28,0.07,0.00,0.00,0.00,122.0896454,37.5442260,0.229,0.213,0.211,0.000,122.0896450,37.5442263,0.037,0.00,1.50,-6.98,0.000,620.36,25,7,4,0,48,42.0
1753864350.671351,4,4.18,22.70,2.71,0,1100000,11100,000100000,-32765,0,0,0,0,0,0,-1.85,2.20,2.68,0.00,0.36,0.14,0.00,0.00,0.00,122.0896454,37.5442260,0.225,0.216,0.215,0.000,122.0896450,37.5442263,0.037,0.00,1.50,-6.98,0.031,620.36,25,7,4,0,48,42.0
1753864350.676728,4,4.18,22.70,2.73,0,1100000,11100,000100000,-32765,0,0,0,0,0,0,-1.80,2.20,2.66,0.03,0.41,0.27,0.00,0.00,0.00,122.0896454,37.5442260,0.216,0.216,0.217,0.000,122.0896450,37.5442263,0.037,0.00,1.50,-6.98,0.031,620.36,25,7,4,0,48,42.0
1753864350.678813,4,4.18,22.70,2.73,0,1100000,11100,000100000,-32765,0,0,0,0,0,0,-1.74,2.21,2.57,0.03,0.27,0.46,0.00,0.00,0.00,122.0896454,37.5442260,0.227,0.218,0.223,0.000,122.0896450,37.5442263,0.037,0.00,1.50,-6.98,0.000,620.36,25,7,4,0,48,42.0
1753864350.680944,4,4.18,22.60,3.06,0,1100000,11100,000100000,-32765,0,0,0,0,0,0,-1.73,2.20,2.52,-0.01,0.12,0.51,0.00,0.00,0.00,122.0896454,37.5442260,0.237,0.222,0.227,0.000,122.0896450,37.5442263,0.037,0.00,1.50,-6.98,0.031,620.36,25,7,4,0,48,42.0
1753864350.683443,4,4.18,22.70,2.71,0,1100000,11100,000100000,-32765,0,0,0,0,0,0,-1.73,2.20,2.47,-0.06,-0.04,0.53,0.00,0.00,0.00,122.0896454,37.5442260,0.231,0.224,0.227,0.000,122.0896450,37.5442263,0.037,0.00,1.50,-6.98,126.500,620.36,25,7,4,0,48,42.0
1753864350.688733,4,4.18,22.70,2.71,0,1100000,11100,000100000,-32765,0,0,0,0,0,0,-1.75,2.18,2.42,-0.10,-0.20,0.52,0.00,0.00,0.00,122.0896454,37.5442260,0.227,0.224,0.228,0.000,122.0896450,37.5442263,0.037,0.00,1.50,-6.98,543313362944.000,620.36,25,7,4,0,48,42.0
1753864350.699134,4,4.18,22.70,2.73,0,1100000,11100,000100000,-32765,0,0,0,0,0,0,-1.79,2.17,2.37,-0.11,-0.34,0.49,0.00,0.00,0.00,122.0896454,37.5442260,0.224,0.224,0.229,0.000,122.0896450,37.5442263,0.037,0.00,1.50,-6.98,2278821411449470976.000,620.36,25,7,4,0,48,43.0
1753864350.743895,4,4.18,22.70,2.73,0,1100000,11100,000100000,-32765,0,0,0,0,0,0,-1.89,2.14,2.29,-0.10,-0.53,0.39,0.00,0.00,0.00,122.0896453,37.5442259,0.227,0.225,0.229,0.000,122.0896450,37.5442263,0.037,0.00,1.50,-6.98,168147341466791857922331593125463588864.000,620.36,25,7,4,0,48,43.0
1753864350.863781,4,4.18,22.70,2.75,0,1100000,11100,000100000,-32765,0,0,0,0,0,0,-1.95,2.13,2.25,-0.07,-0.58,0.35,0.00,0.00,0.00,122.0896453,37.5442259,0.224,0.225,0.226,0.000,122.0896450,37.5442263,0.037,0.00,1.50,-6.98,-0.000,620.36,25,7,4,0,48,43.0
1753864350.984206,4,4.18,22.70,2.75,0,1100000,11100,000100000,-32765,0,0,0,0,0,0,-2.01,2.12,2.23,-0.09,-0.52,0.29,0.00,0.00,0.00,122.0896453,37.5442259,0.221,0.224,0.225,0.000,122.0896450,37.5442263,0.037,0.00,1.50,-6.98,-0.000,620.36,25,7,4,0,48,43.0
1753864351.103744,4,4.18,22.70,2.75,0,1100000,11100,000100000,-32765,0,0,0,0,0,0,-2.03,2.10,2.21,-0.15,-0.12,0.17,0.00,0.00,0.00,122.0896453,37.5442259,0.219,0.223,0.223,0.000,122.0896450,37.5442263,0.037,0.00,1.50,-6.98,-0.000,620.36,25,7,4,0,48,43.0
1753864351.223123,4,4.18,22.60,3.18,0,1100000,11100,000100000,-32765,0,0,0,0,0,0,-2.03,2.09,2.20,-0.10,0.05,0.08,0.00,0.00,0.00,122.0896453,37.5442259,0.231,0.224,0.224,0.000,122.0896450,37.5442263,0.037,0.00,1.50,-6.98,-0.000,620.36,25,7,4,0,48,43.0
1753864351.343086,4,4.18,22.60,3.18,0,1100000,11100,000100000,-32765,0,0,0,0,0,0,-2.01,2.09,2.19,0.01,0.16,-0.03,0.00,0.00,0.00,122.0896453,37.5442259,0.233,0.226,0.226,0.000,122.0896450,37.5442263,0.037,0.00,1.50,-6.98,-0.000,620.36,25,7,4,0,48,43.0
1753864351.463956,4,4.18,22.70,2.76,0,1100000,11100,000100000,-32765,0,0,0,0,0,0,-1.99,2.09,2.20,0.04,0.14,-0.14,0.00,0.00,0.00,122.0896453,37.5442259,0.241,0.229,0.229,0.000,122.0896450,37.5442263,0.037,0.00,1.50,-6.98,-0.000,620.36,25,7,4,0,48,43.0
1753864351.588073,4,4.18,22.70,2.75,0,1100000,11100,000100000,-32765,0,0,0,0,0,0,-1.97,2.10,2.23,0.05,0.15,-0.23,0.00,0.00,0.00,122.0896453,37.5442259,0.234,0.230,0.232,0.000,122.0896450,37.5442263,0.037,0.00,1.50,-6.98,-0.000,620.36,25,7,4,0,48,44.0
1753864351.703789,4,4.18,22.70,2.75,0,1100000,11100,000100000,-32765,0,0,0,0,0,0,-1.95,2.11,2.25,0.07,0.18,-0.26,0.00,0.00,0.00,122.0896453,37.5442259,0.248,0.234,0.238,0.000,122.0896450,37.5442263,0.037,0.00,1.50,-6.98,-0.000,620.36,25,7,4,0,48,44.0
1753864351.823787,4,4.18,22.70,2.73,0,1100000,11100,000100000,-32765,0,0,0,0,0,0,-1.93,2.12,2.28,0.05,0.20,-0.24,0.00,0.00,0.00,122.0896453,37.5442259,0.234,0.234,0.238,0.000,122.0896450,37.5442263,0.037,0.00,1.50,-6.98,-0.000,620.36,25,7,4,0,48,44.0
1753864351.943828,4,4.18,22.70,2.73,0,1100000,11100,000100000,-32765,0,0,0,0,0,0,-1.85,2.13,2.34,-0.03,0.50,-0.36,0.00,0.00,0.00,122.0896453,37.5442259,0.218,0.231,0.235,0.000,122.0896450,37.5442263,0.037,0.00,1.50,-6.98,-0.000,620.36,25,7,4,0,48,44.0
1753864352.063832,4,4.18,22.70,2.77,0,1100000,11100,000100000,-32765,0,0,0,0,0,0,-1.79,2.13,2.37,-0.02,0.52,-0.41,0.00,0.00,0.00,122.0896453,37.5442259,0.211,0.227,0.229,0.000,122.0896450,37.5442263,0.037,0.00,1.50,-6.98,-0.000,620.36,25,7,4,0,48,44.0
1753864352.188586,4,4.18,22.60,3.12,0,1100000,11100,000100000,-32765,0,0,0,0,0,0,-1.78,2.13,2.41,0.03,0.00,-0.41,0.00,0.00,0.00,122.0896453,37.5442259,0.211,0.224,0.224,0.000,122.0896450,37.5442263,0.037,0.00,1.50,-6.98,-0.000,620.36,25,7,4,0,48,44.0
1753864352.303235,4,4.18,22.60,3.12,0,1100000,11100,000100000,-32765,0,0,0,0,0,0,-1.79,2.14,2.46,0.07,-0.15,-0.53,0.00,0.00,0.00,122.0896453,37.5442259,0.225,0.224,0.220,0.000,122.0896450,37.5442263,0.037,0.00,1.50,-6.98,164206388151163923752276946411585536.000,620.36,25,7,4,0,48,44.0
1753864352.423783,4,4.18,22.70,2.73,0,1100000,11100,000100000,-32765,0,0,0,0,0,0,-1.81,2.16,2.51,0.13,-0.20,-0.58,0.00,0.00,0.00,122.0896453,37.5442259,0.222,0.223,0.217,0.000,122.0896450,37.5442263,0.037,0.00,1.50,-6.98,9558069761328161912520704.000,620.36,25,7,4,0,48,44.0
1753864352.543846,4,4.18,22.70,2.73,0,1100000,11100,000100000,-32765,0,0,0,0,0,0,-1.92,2.13,2.65,-0.16,-0.66,-0.78,0.00,0.00,0.00,122.0896453,37.5442259,0.218,0.222,0.217,0.000,122.0896450,37.5442263,0.037,0.00,1.50,-6.98,-0.000,620.36,25,7,4,0,48,45.0
1753864352.663842,4,4.18,22.70,2.69,0,1100000,11100,000100000,-32765,0,0,0,0,0,0,-1.97,2.13,2.74,-0.16,-0.52,-0.94,0.00,0.00,0.00,122.0896453,37.5442259,0.217,0.221,0.219,0.000,122.0896450,37.5442263,0.037,0.00,1.50,-6.98,-0.000,620.36,25,7,4,0,48,45.0
1753864352.788049,4,4.18,22.70,2.73,0,1100000,11100,000100000,-32765,0,0,0,0,0,0,-2.01,2.12,2.85,-0.18,-0.30,-1.11,0.00,0.00,0.00,122.0896453,37.5442259,0.216,0.220,0.219,0.000,122.0896450,37.5442263,0.037,0.00,1.50,-6.98,-0.000,620.36,25,7,4,0,48,45.0
1753864352.903777,4,4.18,22.70,2.73,0,1100000,11100,000100000,-32765,0,0,0,0,0,0,-2.01,2.10,2.98,-0.21,-0.01,-1.26,0.00,0.00,0.00,122.0896453,37.5442259,0.228,0.222,0.220,0.000,122.0896450,37.5442263,0.037,0.00,1.50,-6.98,-0.000,620.36,25,7,4,0,48,45.0
1753864353.023801,4,4.18,22.70,2.65,0,1100000,11100,000100000,-32765,0,0,0,0,0,0,-1.97,2.09,3.11,-0.23,0.25,-1.35,0.00,0.00,0.00,122.0896453,37.5442259,0.237,0.225,0.223,0.000,122.0896450,37.5442263,0.037,0.00,1.50,-6.98,-0.000,620.36,25,7,4,0,48,45.0
1753864353.143775,4,4.18,22.70,2.65,0,1100000,11100,000100000,-32765,0,0,0,0,0,0,-1.88,2.08,3.37,0.00,0.20,-1.24,0.00,0.00,0.00,122.0896453,37.5442259,0.237,0.227,0.227,0.000,122.0896450,37.5442263,0.037,0.00,1.50,-6.98,-0.000,620.36,25,7,4,0,48,45.0
1753864353.263776,4,4.18,22.70,2.69,0,1100000,11100,000100000,-32765,0,0,0,0,0,0,-1.82,2.09,3.50,-0.05,0.62,-1.34,0.00,0.00,0.00,122.0896453,37.5442259,0.244,0.231,0.233,0.000,122.0896450,37.5442263,0.037,0.00,1.50,-6.98,-0.000,620.36,25,7,4,0,48,45.0
1753864353.388490,4,4.18,22.60,3.03,0,1100000,11100,000100000,-32765,0,0,0,0,0,0,-1.73,2.07,3.64,-0.41,0.96,-1.49,0.00,0.00,0.00,122.0896453,37.5442259,0.230,0.231,0.235,0.000,122.0896450,37.5442263,0.037,0.00,1.50,-6.98,-7.906,620.36,25,7,4,0,48,45.0
1753864353.722301,4,4.18,22.60,3.03,0,1100000,11100,000100000,-32765,0,0,0,0,0,0,-1.53,1.99,3.81,-1.12,2.20,-1.68,0.00,0.00,0.00,122.0896453,37.5442259,0.226,0.230,0.235,0.000,122.0896450,37.5442263,0.037,0.00,1.50,-6.98,0.000,620.36,25,7,4,0,48,45.0
1753864353.724467,4,4.18,22.70,2.77,0,1100000,11100,000100000,-32765,0,0,0,0,0,0,-1.25,1.77,3.99,-2.56,2.88,-1.93,0.00,0.00,0.00,122.0896453,37.5442259,0.223,0.228,0.232,0.000,122.0896450,37.5442263,0.037,0.00,1.50,-6.98,-38383394772764476296921088.000,620.36,25,7,4,0,48,46.0
1753864353.744421,4,4.18,22.70,2.78,0,1100000,11100,000100000,-32765,0,0,0,0,0,0,0.52,0.86,4.42,-5.70,9.11,-2.08,0.00,0.00,0.00,122.0896453,37.5442259,0.207,0.224,0.226,0.000,122.0896450,37.5442263,0.037,0.00,1.50,-6.98,10546852993898868620452570668728320.000,620.36,25,7,4,0,48,46.0
1753864353.864586,4,4.18,22.70,2.76,0,1100000,11100,000100000,-32765,0,0,0,0,0,0,1.17,0.20,4.62,-6.71,5.62,-1.98,0.00,0.00,0.00,122.0896453,37.5442259,0.202,0.220,0.218,0.000,122.0896450,37.5442263,0.037,0.00,1.50,-6.98,0.000,620.36,25,7,4,0,48,46.0
1753864353.984280,4,4.18,22.70,2.75,0,1100000,11100,000100000,-32765,0,0,0,0,0,0,1.57,-0.51,4.82,-7.31,3.82,-2.11,0.00,0.00,0.00,122.0896453,37.5442259,0.198,0.216,0.211,0.000,122.0896450,37.5442263,0.037,0.00,1.50,-6.98,-38911100780481085440.000,620.36,25,7,4,0,48,46.0
1753864354.103113,4,4.18,22.70,2.75,0,1100000,11100,000100000,-32765,0,0,0,0,0,0,2.71,-1.25,5.07,-7.07,16.16,-2.22,0.00,0.00,0.00,122.0896453,37.5442259,0.195,0.212,0.205,0.000,122.0896450,37.5442263,0.037,0.00,1.50,-6.98,-2208.000,620.36,25,7,4,0,48,46.0
1753864354.222893,4,4.18,22.70,2.79,0,1000000,11100,000100000,-32765,0,0,0,0,0,0,4.64,-1.97,5.34,-6.84,18.83,-1.63,0.00,0.00,0.00,122.0896453,37.5442259,0.174,0.204,0.196,0.000,122.0896450,37.5442263,0.037,0.00,1.50,-6.98,-0.000,620.36,25,7,4,0,48,46.0
1753864354.343814,4,4.18,22.70,2.79,0,1100000,11100,000100000,-32765,0,0,0,0,0,0,7.03,-3.32,5.71,-6.50,7.06,-1.29,-0.10,-0.08,-0.10,122.0896452,37.5442257,0.165,0.196,0.187,0.000,122.0896450,37.5442263,0.037,0.00,1.50,-6.98,-0.000,620.36,25,7,4,0,48,46.0
1753864354.463800,4,4.18,22.60,3.10,0,1100000,11100,000100000,-32765,0,0,0,0,0,0,7.16,-4.01,5.79,-6.68,0.01,-1.53,-0.10,-0.08,-0.10,122.0896451,37.5442257,0.151,0.187,0.177,0.000,122.0896450,37.5442263,0.037,0.00,1.50,-6.98,-0.000,620.36,25,7,4,0,48,46.0
1753864354.588422,4,4.18,22.70,2.72,0,1100000,11100,000100000,-32765,0,0,0,0,0,0,6.77,-4.68,5.81,-6.63,-4.75,-1.43,-0.10,-0.08,-0.10,122.0896449,37.5442257,0.134,0.176,0.164,0.000,122.0896450,37.5442263,0.037,0.00,1.50,-6.98,-0.000,620.36,25,7,4,0,48,47.0
1753864354.703724,4,4.18,22.70,2.72,0,1100000,11100,000100000,-32765,0,0,0,0,0,0,5.98,-5.32,5.78,-6.27,-8.75,-1.17,-0.10,-0.08,-0.10,122.0896448,37.5442256,0.127,0.166,0.150,0.000,122.0896450,37.5442263,0.037,0.00,1.50,-6.98,-0.000,620.36,25,7,4,0,48,47.0
1753864354.823772,4,4.18,22.70,2.73,0,1100000,11100,000100000,-32765,0,0,0,0,0,0,4.82,-5.88,5.71,-5.43,-12.64,-0.73,-0.10,-0.08,-0.10,122.0896448,37.5442255,0.116,0.156,0.138,0.000,122.0896450,37.5442263,0.037,0.00,1.50,-6.98,-0.000,620.36,25,7,4,0,48,47.0
1753864354.943914,4,4.18,22.70,2.73,0,1100000,11100,000100000,-32765,0,0,0,0,0,0,1.32,-6.70,5.51,-3.52,-18.21,0.45,-0.10,-0.08,-0.10,122.0896446,37.5442253,0.101,0.145,0.126,0.000,122.0896450,37.5442263,0.037,0.00,1.50,-6.98,-0.000,620.36,25,7,4,0,48,47.0
1753864355.063968,4,4.18,22.70,2.75,0,1100000,11100,000100000,-32765,0,0,0,0,0,0,-0.36,-6.97,5.41,-2.52,-16.91,1.12,-0.10,-0.08,-0.10,122.0896445,37.5442252,0.102,0.137,0.116,0.000,122.0896450,37.5442263,0.037,0.00,1.50,-6.98,-0.000,620.36,25,7,4,0,48,47.0
1753864355.188152,4,4.18,22.70,2.72,0,1100000,11100,000100000,-32765,0,0,0,0,0,0,-2.02,-7.06,5.32,-0.73,-16.49,1.38,-0.10,-0.08,-0.10,122.0896443,37.5442252,0.097,0.129,0.108,0.000,122.0896450,37.5442263,0.037,0.00,1.50,-6.98,-0.000,620.36,25,7,4,0,48,47.0
1753864355.303148,4,4.18,22.70,2.72,0,1100000,11100,000100000,-32765,0,0,0,0,0,0,-3.54,-7.00,5.27,0.64,-14.61,1.41,-0.10,-0.08,-0.10,122.0896443,37.5442251,0.093,0.121,0.102,0.000,122.0896450,37.5442263,0.037,0.00,1.50,-6.98,-0.000,620.36,25,7,4,0,48,47.0
1753864355.423097,4,4.18,22.70,2.67,0,1100000,11100,000100000,-32765,0,0,0,0,0,0,-4.75,-6.89,5.22,1.03,-11.13,1.35,-0.10,-0.08,-0.10,122.0896442,37.5442250,0.083,0.114,0.095,0.000,122.0896450,37.5442263,0.037,0.00,1.50,-6.98,-0.000,620.36,25,7,4,0,48,47.0
1753864355.543157,4,4.18,22.70,2.67,0,1100000,11100,000100000,-32765,0,0,0,0,0,0,-5.78,-6.76,5.09,0.37,-1.43,0.62,-0.10,-0.08,-0.10,122.0896439,37.5442248,0.063,0.104,0.087,0.000,122.0896450,37.5442263,0.037,0.00,1.50,-6.98,-0.000,620.36,25,7,4,0,48,48.0
1753864355.663893,4,4.18,22.60,3.05,0,1100000,11100,000100000,-32765,0,0,0,0,0,0,-5.54,-6.74,5.05,0.21,3.52,-0.04,-0.10,-0.08,-0.10,122.0896438,37.5442248,0.073,0.097,0.082,0.000,122.0896450,37.5442263,0.037,0.00,1.50,-6.98,-0.000,620.36,25,7,4,0,48,48.0
1753864355.784211,4,4.18,22.60,3.05,0,1100000,11100,000100000,-32765,0,0,0,0,0,0,-4.85,-6.72,5.04,0.18,7.95,-0.56,-0.10,-0.08,-0.10,122.0896437,37.5442247,0.056,0.089,0.073,0.000,122.0896450,37.5442263,0.037,0.00,1.50,-6.98,-0.000,620.36,25,7,4,0,48,48.0
1753864355.903218,4,4.18,22.70,2.75,0,1100000,11100,000100000,-32765,0,0,0,0,0,0,-3.69,-6.68,5.04,0.68,12.81,-0.93,-0.10,-0.08,-0.10,122.0896436,37.5442247,0.036,0.079,0.062,0.000,122.0896450,37.5442263,0.037,0.00,1.50,-6.98,-0.000,620.36,25,7,4,0,48,48.0
1753864356.023155,4,4.18,22.70,2.67,0,1100000,11100,000100000,-32765,0,0,0,0,0,0,-2.04,-6.53,5.07,1.97,17.41,-1.06,-0.10,-0.08,-0.10,122.0896435,37.5442246,0.040,0.071,0.054,0.000,122.0896450,37.5442263,0.037,0.00,1.50,-6.98,-0.000,620.36,25,7,4,0,48,48.0
1753864356.144308,4,4.18,22.70,2.68,0,1100000,11100,000100000,-32765,0,0,0,0,0,0,1.87,-5.81,5.20,4.48,19.44,-0.09,-0.10,-0.08,-0.10,122.0896433,37.5442244,0.017,0.060,0.044,0.000,122.0896450,37.5442263,0.037,0.00,1.50,-6.98,-0.000,620.36,25,7,4,0,48,48.0
1753864356.263910,4,4.18,22.70,2.76,0,1100000,11100,000100000,-32765,0,0,0,0,0,0,3.43,-5.28,5.28,5.50,14.10,0.38,-0.10,-0.08,-0.10,122.0896432,37.5442243,0.007,0.049,0.031,0.000,122.0896450,37.5442263,0.037,0.00,1.50,-6.98,-0.000,620.36,25,7,4,0,48,48.0
1753864356.387984,4,4.18,22.60,3.08,0,1100000,11100,000100000,-32765,0,0,0,0,0,0,4.52,-4.71,5.35,5.79,10.31,0.56,-0.10,-0.08,-0.10,122.0896431,37.5442242,0.005,0.041,0.021,0.000,122.0896450,37.5442263,0.037,0.00,1.50,-6.98,-0.000,620.36,25,7,4,0,48,48.0
1753864356.503748,4,4.18,22.60,3.08,0,1100000,11100,000100000,-32765,0,0,0,0,0,0,5.32,-4.11,5.37,5.94,6.94,1.19,-0.07,-0.11,-0.07,122.0896430,37.5442242,-0.002,0.032,0.013,0.000,122.0896450,37.5442263,0.037,0.00,1.50,-6.98,-0.000,620.36,25,7,4,0,48,48.0
1753864356.623679,4,4.18,22.70,2.69,0,1100000,11100,000100000,-32765,0,0,0,0,0,0,5.60,-3.52,5.31,5.66,1.24,1.61,-0.07,-0.11,-0.07,122.0896428,37.5442242,-0.014,0.023,0.002,0.000,122.0896450,37.5442263,0.037,0.00,1.50,-6.98,-0.000,620.36,25,7,4,0,48,49.0
1753864356.743094,4,4.18,22.70,2.69,0,1100000,11100,000100000,-32765,0,0,0,0,0,0,5.01,-2.44,4.95,4.63,-2.90,2.45,-0.06,-0.10,-0.05,122.0896426,37.5442240,-0.024,0.013,-0.006,0.000,122.0896450,37.5442263,0.037,0.00,1.50,-6.98,-0.000,620.36,25,7,4,0,48,49.0
1753864356.862962,4,4.18,22.70,2.68,0,1100000,11100,000100000,-32765,0,0,0,0,0,0,4.88,-1.98,4.69,4.20,-1.78,3.02,-0.05,-0.09,-0.04,122.0896425,37.5442240,-0.025,0.006,-0.012,0.000,122.0896450,37.5442263,0.037,0.00,1.50,-6.98,-0.000,620.36,25,7,4,0,48,49.0
1753864356.988299,4,4.18,22.70,2.65,0,1100000,11100,000100000,-32765,0,0,0,0,0,0,4.64,-1.54,4.38,4.00,-3.08,3.26,-0.04,-0.11,-0.03,122.0896423,37.5442240,-0.025,-0.000,-0.018,0.000,122.0896450,37.5442263,0.037,0.00,1.50,-6.98,-0.000,620.36,25,7,4,0,48,49.0
1753864357.103991,4,4.18,22.70,2.65,0,1100000,11100,000100000,-32765,0,0,0,0,0,0,4.32,-1.11,4.05,4.05,-3.63,3.38,-0.04,-0.11,-0.03,122.0896422,37.5442239,-0.025,-0.005,-0.023,0.000,122.0896450,37.5442263,0.037,0.00,1.50,-6.98,0.000,620.36,25,7,4,0,48,49.0
1753864357.228613,4,4.18,22.70,2.65,0,1100000,11100,000100000,-32765,0,0,0,0,0,0,4.06,-0.68,3.71,3.96,-2.30,3.56,-0.03,-0.10,-0.02,122.0896421,37.5442239,-0.025,-0.009,-0.025,0.000,122.0896450,37.5442263,0.037,0.00,1.50,-6.98,-0.000,620.36,25,7,4,0,48,49.0
1753864357.343810,4,4.28,22.70,2.65,0,1100000,11100,000100000,-32765,0,0,0,0,0,0,4.62,0.12,3.04,3.76,3.68,3.97,-0.02,-0.12,0.00,122.0896418,37.5442238,-0.031,-0.014,-0.026,0.000,122.0896450,37.5442263,0.037,0.00,1.50,-6.98,598978750440275968.000,620.36,25,7,4,0,48,49.0
1753864357.463780,4,4.28,22.70,2.92,0,1100000,11100,000100000,-32765,0,0,0,0,0,0,4.86,0.53,2.70,3.93,1.65,4.01,-0.03,-0.13,0.00,122.0896417,37.5442238,-0.036,-0.018,-0.028,0.000,122.0896450,37.5442263,0.037,0.00,1.50,-6.98,-8.188,620.36,25,7,4,0,48,49.0
1753864357.584119,4,4.28,22.70,2.93,0,1100000,11100,000100000,-32765,0,0,0,0,0,0,5.09,0.96,2.33,3.96,2.41,4.37,-0.02,-0.12,0.00,122.0896416,37.5442238,-0.034,-0.021,-0.030,0.000,122.0896450,37.5442263,0.037,0.00,1.50,-6.98,0.000,620.36,25,7,4,0,48,50.0
1753864357.703243,4,4.28,22.70,2.93,0,1100000,11100,000100000,-32765,0,0,0,0,0,0,5.48,1.38,1.92,3.97,3.76,4.91,-0.01,-0.12,0.01,122.0896414,37.5442238,-0.038,-0.025,-0.033,0.000,122.0896450,37.5442263,0.037,0.00,1.50,-6.98,10141204801825835211973625643008.000,620.36,25,7,4,0,48,50.0
1753864357.823023,4,4.28,22.70,2.70,0,1100000,11100,000100000,-32765,0,0,0,0,0,0,5.94,1.81,1.48,3.97,4.43,5.43,0.00,-0.13,0.01,122.0896412,37.5442237,-0.042,-0.028,-0.036,0.000,122.0896450,37.5442263,0.037,0.00,1.50,-6.98,-520192.000,620.36,25,7,4,0,48,50.0
1753864357.943698,4,4.28,22.70,2.70,0,1100000,11100,000100000,-32765,0,0,0,0,0,0,6.64,2.62,0.51,3.54,1.55,5.68,0.00,-0.14,0.02,122.0896409,37.5442237,-0.034,-0.029,-0.037,0.000,122.0896450,37.5442263,0.037,0.00,1.50,-6.98,-0.000,620.36,25,7,4,0,48,50.0
1753864358.063894,4,4.28,22.70,2.67,0,1100000,11100,000100000,-32765,0,0,0,0,0,0,6.81,2.98,-0.02,3.14,1.30,5.95,0.00,-0.13,0.02,122.0896407,37.5442237,-0.032,-0.030,-0.036,0.000,122.0896450,37.5442263,0.037,0.00,1.50,-6.98,0.000,620.36,25,7,4,0,48,50.0
1753864358.188092,4,4.28,22.70,2.68,0,1100000,11100,000100000,-32765,0,0,0,0,0,0,6.82,3.30,-0.56,2.78,-1.10,5.64,0.00,-0.13,0.02,122.0896407,37.5442237,-0.037,-0.031,-0.037,0.000,122.0896450,37.5442263,0.037,0.00,1.50,-6.98,-10060075163411228530277836637863936.000,620.36,25,7,4,0,48,50.0
1753864358.303108,4,4.28,22.70,2.67,0,1100000,11100,000100000,-32765,0,0,0,0,0,0,6.30,3.60,-1.12,2.80,-7.06,5.21,0.00,-0.13,0.02,122.0896405,37.5442237,-0.041,-0.033,-0.037,0.000,122.0896450,37.5442263,0.037,0.00,1.50,-6.98,-494.000,620.36,25,7,4,0,48,50.0
1753864358.635786,4,4.28,22.70,2.67,0,1100000,11100,000100000,-32765,0,0,0,0,0,0,5.36,3.92,-1.70,2.84,-9.54,5.29,0.00,-0.13,0.02,122.0896403,37.5442237,-0.056,-0.038,-0.040,0.000,122.0896450,37.5442263,0.037,0.00,1.50,-6.98,-0.000,620.36,25,7,4,0,48,50.0
1753864358.636663,4,4.28,22.70,2.67,0,1100000,11100,000100000,-32765,0,0,0,0,0,0,3.75,4.50,-2.88,2.93,-8.06,5.51,0.00,-0.13,0.02,122.0896400,37.5442237,-0.037,-0.038,-0.041,0.000,122.0896450,37.5442263,0.037,0.00,1.50,-6.98,499712.000,626.73,25,7,4,0,48,51.0
1753864358.663794,4,4.38,22.60,3.03,0,1100000,11100,000100000,-32765,0,0,0,0,0,0,2.69,4.80,-3.44,3.15,-11.21,5.13,0.00,-0.13,0.02,122.0896398,37.5442237,-0.054,-0.041,-0.045,0.000,122.0896450,37.5442263,0.037,0.00,1.50,-6.98,499712.000,630.65,25,7,4,0,48,51.0
1753864358.788027,4,4.38,22.70,2.72,0,1100000,11100,000100000,-32765,0,0,0,0,0,0,1.37,5.10,-3.96,3.29,-13.19,4.82,0.00,-0.13,0.02,122.0896396,37.5442237,-0.054,-0.043,-0.048,0.000,122.0896450,37.5442263,0.037,0.00,1.50,-6.98,499712.000,634.27,25,7,4,0,48,51.0
1753864358.903745,4,4.38,22.70,2.72,0,1100000,11100,000100000,-32765,0,0,0,0,0,0,0.07,5.40,-4.42,3.27,-12.31,4.48,-0.08,0.04,0.08,122.0896396,37.5442237,-0.053,-0.045,-0.051,0.000,122.0896450,37.5442263,0.037,0.00,1.50,-6.98,499712.000,637.50,25,7,4,0,48,51.0
1753864359.023724,4,4.38,22.70,2.71,0,1100000,11100,000100000,-32765,0,0,0,0,0,0,-1.06,5.68,-4.83,3.14,-10.86,4.11,-0.08,0.04,0.08,122.0896396,37.5442237,-0.053,-0.047,-0.050,0.000,122.0896450,37.5442263,0.037,0.00,1.50,-6.98,499712.000,640.34,25,7,4,0,48,51.0
1753864359.220154,4,4.38,22.70,2.71,0,1100000,11100,000100000,-32765,0,0,0,0,0,0,-3.03,6.19,-5.52,2.98,-7.98,3.48,-0.07,-0.14,0.02,122.0896394,37.5442235,-0.037,-0.045,-0.050,0.000,122.0896450,37.5442263,0.037,0.00,1.50,-6.98,499712.000,645.15,25,7,4,0,48,51.0
1753864359.262476,4,4.38,22.70,2.69,0,1100000,11100,000100000,-32765,0,0,0,0,0,0,-3.65,6.42,-5.81,2.80,-4.81,2.99,0.10,-0.31,0.00,122.0896391,37.5442235,-0.054,-0.047,-0.050,0.000,122.0896450,37.5442263,0.037,0.00,1.50,-6.98,499712.000,647.19,25,7,4,0,48,51.0
1753864359.387985,4,4.38,22.70,2.69,0,1100000,11100,000100000,-32765,0,0,0,0,0,0,-3.94,6.61,-6.06,2.39,-1.38,2.36,0.10,-0.31,0.00,122.0896388,37.5442236,-0.047,-0.047,-0.049,0.000,122.0896450,37.5442263,0.037,0.00,1.50,-6.98,499712.000,648.96,25,7,4,0,48,51.0
1753864359.503684,4,4.38,22.70,2.69,0,1100000,11100,000100000,-32765,0,0,0,0,0,0,-3.90,6.76,-6.28,1.80,1.68,1.86,0.10,-0.31,0.00,122.0896385,37.5442237,-0.042,-0.046,-0.047,0.000,122.0896450,37.5442263,0.037,0.00,1.50,-6.98,499712.000,650.49,25,7,4,0,48,51.0
1753864359.623744,4,4.38,22.60,2.93,0,1100000,11100,000100000,-32765,0,0,0,0,0,0,-3.63,6.86,-6.47,1.18,3.52,1.52,0.10,-0.31,0.00,122.0896381,37.5442237,-0.045,-0.046,-0.045,0.000,122.0896450,37.5442263,0.037,0.00,1.50,-6.98,499712.000,651.80,25,7,4,0,48,52.0
1753864359.747079,4,4.38,22.60,2.93,0,1100000,11100,000100000,-32765,0,0,0,0,0,0,-2.74,6.87,-6.76,-0.03,5.52,1.00,0.10,-0.31,0.00,122.0896373,37.5442238,-0.031,-0.043,-0.044,0.000,122.0896450,37.5442263,0.037,0.00,1.50,-6.98,499712.000,653.84,25,7,4,0,48,52.0
1753864359.863733,4,4.38,22.70,2.75,0,1100000,11100,000100000,-32765,0,0,0,0,0,0,-2.18,6.81,-6.88,-0.46,6.04,0.99,0.10,-0.31,0.00,122.0896370,37.5442239,-0.036,-0.041,-0.040,0.000,122.0896450,37.5442263,0.037,0.00,1.50,-6.98,499712.000,654.69,25,7,4,0,48,52.0
1753864359.984174,4,4.38,22.70,2.70,0,1100000,11100,000100000,-32765,0,0,0,0,0,0,-1.57,6.71,-7.00,-0.79,6.45,1.08,0.10,-0.31,0.00,122.0896365,37.5442240,-0.027,-0.038,-0.036,0.000,122.0896450,37.5442263,0.037,0.00,1.50,-6.98,499712.000,0.16,25,7,4,0,48,52.0
1753864360.103259,4,4.38,22.70,2.70,0,1100000,11100,000100000,-32765,0,0,0,0,0,0,-0.96,6.57,-7.13,-1.20,6.40,1.12,0.10,-0.31,0.00,122.0896362,37.5442240,-0.033,-0.037,-0.034,0.000,122.0896450,37.5442263,0.037,0.00,1.50,-6.98,499712.000,1.05,25,7,4,0,48,52.0
1753864360.223121,4,4.38,22.70,2.69,0,1100000,11100,000100000,-32765,0,0,0,0,0,0,-0.37,6.42,-7.23,-1.49,5.78,1.11,0.00,-0.13,-0.01,122.0896360,37.5442241,-0.032,-0.036,-0.032,0.000,122.0896450,37.5442263,0.037,0.00,1.50,-6.98,499712.000,1.81,25,7,4,0,48,52.0
1753864360.343243,4,4.38,22.70,2.69,0,1100000,11100,000100000,-32765,0,0,0,0,0,0,0.41,6.04,-7.46,-1.93,2.64,1.16,0.00,-0.10,0.00,122.0896357,37.5442241,-0.050,-0.039,-0.036,0.000,122.0896450,37.5442263,0.037,0.00,1.50,-6.98,499712.000,3.39,25,7,4,0,48,52.0
1753864360.463954,4,4.38,22.70,2.68,0,1100000,11100,000100000,-32765,0,0,0,0,0,0,0.50,5.82,-7.58,-2.15,0.42,1.16,0.01,-0.10,0.00,122.0896356,37.5442240,-0.044,-0.040,-0.037,0.000,122.0896450,37.5442263,0.037,0.00,1.50,-6.98,499712.000,4.24,25,7,4,0,48,52.0
1753864360.588000,4,4.38,22.60,2.89,0,1100000,11100,000100000,-32765,0,0,0,0,0,0,0.36,5.58,-7.70,-2.36,-1.91,1.17,0.01,-0.09,0.00,122.0896355,37.5442241,-0.059,-0.044,-0.044,0.000,122.0896450,37.5442263,0.037,0.00,1.50,-6.98,499712.000,5.04,25,7,4,0,48,53.0
1753864360.703760,4,4.28,22.60,2.89,0,1100000,11100,000100000,-32765,0,0,0,0,0,0,0.01,5.31,-7.82,-2.61,-4.02,1.17,0.01,-0.09,0.00,122.0896354,37.5442241,-0.051,-0.045,-0.047,0.000,122.0896450,37.5442263,0.037,0.00,1.50,-6.98,499712.000,5.89,25,7,4,0,48,53.0
1753864360.823775,4,4.28,22.60,2.97,0,1100000,11100,000100000,-32765,0,0,0,0,0,0,-0.51,5.03,-7.93,-2.85,-5.61,1.19,0.01,-0.08,0.00,122.0896353,37.5442241,-0.052,-0.047,-0.051,0.000,122.0896450,37.5442263,0.037,0.00,1.50,-6.98,499712.000,6.66,25,7,4,0,48,53.0
1753864360.943807,4,4.28,22.60,2.97,0,1100000,11100,000100000,-32765,0,0,0,0,0,0,-1.81,4.38,-8.11,-3.25,-6.57,1.08,0.01,-0.06,0.00,122.0896351,37.5442241,-0.046,-0.047,-0.050,0.000,122.0896450,37.5442263,0.037,0.00,1.50,-6.98,-0.000,7.97,25,7,4,0,48,53.0
1753864361.063946,4,4.28,22.70,2.70,0,1100000,11100,000100000,-32765,0,0,0,0,0,0,-2.42,4.04,-8.17,-3.37,-5.79,0.86,0.01,-0.06,0.00,122.0896350,37.5442241,-0.048,-0.047,-0.051,0.000,122.0896450,37.5442263,0.037,0.00,1.50,-6.98,0.000,8.35,25,7,4,0,48,53.0
1753864361.188095,4,4.28,22.70,2.70,0,1100000,11100,000100000,-32765,0,0,0,0,0,0,-2.88,3.70,-8.20,-3.40,-4.20,0.57,0.01,-0.06,0.00,122.0896350,37.5442241,-0.049,-0.047,-0.049,0.000,122.0896450,37.5442263,0.037,0.00,1.50,-6.98,583212260634401183891456.000,8.54,25,7,4,0,48,53.0
1753864361.303075,4,4.28,22.70,2.70,0,1100000,11100,000100000,-32765,0,0,0,0,0,0,-3.11,3.36,-8.19,-3.35,-1.71,0.17,0.01,-0.06,0.00,122.0896349,37.5442241,-0.050,-0.048,-0.049,0.000,122.0896450,37.5442263,0.037,0.00,1.50,-6.98,-0.008,8.51,25,7,4,0,48,53.0
1753864361.422998,4,4.28,22.70,2.70,0,1100000,11100,000100000,-32765,0,0,0,0,0,0,-3.04,3.04,-8.16,-3.19,1.38,-0.34,0.01,-0.06,0.00,122.0896348,37.5442241,-0.044,-0.047,-0.047,0.000,122.0896450,37.5442263,0.037,0.00,1.50,-6.98,-161610239721896509938011698246975488.000,8.27,25,7,4,0,48,53.0
1753864361.543706,4,4.28,22.70,2.70,0,1100000,11100,000100000,-32765,0,0,0,0,0,0,-1.78,2.52,-7.96,-2.34,9.12,-1.50,0.00,-0.07,0.00,122.0896346,37.5442241,-0.043,-0.046,-0.047,0.000,122.0896450,37.5442263,0.037,0.00,1.50,-6.98,0.000,6.89,25,7,4,0,48,54.0
1753864361.663099,4,4.28,22.70,2.67,0,1100000,11100,000100000,-32765,0,0,0,0,0,0,-0.60,2.35,-7.80,-1.68,12.31,-1.87,0.00,-0.08,0.00,122.0896345,37.5442241,-0.039,-0.045,-0.045,0.000,122.0896450,37.5442263,0.037,0.00,1.50,-6.98,-0.000,5.74,25,7,4,0,48,54.0
1753864361.784135,4,4.28,22.70,2.98,0,1100000,11100,000100000,-32765,0,0,0,0,0,0,0.79,2.24,-7.59,-0.90,14.37,-2.02,0.01,-0.10,0.00,122.0896345,37.5442241,-0.036,-0.043,-0.042,0.000,122.0896450,37.5442263,0.037,0.00,1.50,-6.98,0.000,4.28,25,7,4,0,48,54.0
1753864361.903061,4,4.28,22.70,2.98,0,1100000,11100,000100000,-32765,0,0,0,0,0,0,2.28,2.21,-7.33,-0.11,14.82,-2.01,0.01,-0.09,0.00,122.0896344,37.5442241,-0.040,-0.042,-0.040,0.000,122.0896450,37.5442263,0.037,0.00,1.50,-6.98,0.000,2.51,25,7,4,0,48,54.0
1753864362.022971,4,4.28,22.70,2.72,0,1100000,11100,000100000,-32765,0,0,0,0,0,0,3.64,2.25,-7.06,0.46,13.07,-1.85,0.01,-0.09,0.00,122.0896342,37.5442241,-0.037,-0.041,-0.039,0.000,122.0896450,37.5442263,0.037,0.00,1.50,-6.98,0.000,0.62,25,7,4,0,48,54.0
1753864362.143223,4,4.18,22.70,2.72,0,1100000,11100,000100000,-32765,0,0,0,0,0,0,5.47,2.36,-6.55,0.66,6.54,-1.79,0.01,-0.09,0.00,122.0896340,37.5442241,-0.047,-0.042,-0.040,0.000,122.0896450,37.5442263,0.037,0.00,1.50,-6.98,-0.000,652.38,25,7,4,0,48,54.0
1753864362.263725,4,4.18,22.70,2.69,0,1100000,11100,000100000,-32765,0,0,0,0,0,0,5.85,2.40,-6.32,0.40,2.90,-1.88,0.01,-0.06,0.00,122.0896339,37.5442241,-0.061,-0.046,-0.044,0.000,122.0896450,37.5442263,0.037,0.00,1.50,-6.98,10467670466806212499117480599707713536.000,650.76,25,7,4,0,48,54.0
1753864362.384171,4,4.18,22.70,2.68,0,1100000,11100,000100000,-32765,0,0,0,0,0,0,5.82,2.39,-6.13,-0.01,-1.09,-1.99,0.01,-0.05,0.00,122.0896339,37.5442241,-0.053,-0.047,-0.047,0.000,122.0896450,37.5442263,0.037,0.00,1.50,-6.98,-0.000,649.42,25,7,4,0,48,54.0
1753864362.502996,4,4.18,22.70,2.68,0,1100000,11100,000100000,-32765,0,0,0,0,0,0,5.39,2.36,-5.96,-0.25,-5.16,-2.14,0.00,-0.04,0.00,122.0896338,37.5442241,-0.065,-0.051,-0.052,0.000,122.0896450,37.5442263,0.037,0.00,1.50,-6.98,-0.000,648.23,25,7,4,0,48,54.0
1753864362.623837,4,4.18,22.70,2.68,0,1100000,11100,000100000,-32765,0,0,0,0,0,0,4.59,2.34,-5.80,-0.21,-8.85,-2.20,0.00,-0.03,0.00,122.0896338,37.5442241,-0.062,-0.053,-0.058,0.000,122.0896450,37.5442263,0.037,0.00,1.50,-6.98,-0.000,647.15,25,7,4,0,48,55.0
1753864362.743762,4,4.18,22.70,2.68,0,1100000,11100,000100000,-32765,0,0,0,0,0,0,2.25,2.38,-5.58,0.46,-12.71,-1.43,0.00,-0.01,-0.01,122.0896337,37.5442241,-0.058,-0.054,-0.060,0.000,122.0896450,37.5442263,0.037,0.00,1.50,-6.98,-0.000,645.57,25,7,4,0,48,55.0
1753864362.863662,4,4.18,22.70,2.89,0,1100000,11100,000100000,-32765,0,0,0,0,0,0,1.04,2.45,-5.48,0.73,-11.60,-1.11,0.00,0.00,-0.01,122.0896337,37.5442241,-0.070,-0.057,-0.062,0.000,122.0896450,37.5442263,0.037,0.00,1.50,-6.98,8064.000,644.92,25,7,4,0,48,55.0
1753864362.987927,4,4.18,22.60,2.96,0,1100000,11100,000100000,-32765,0,0,0,0,0,0,0.15,2.54,-5.39,0.90,-7.95,-0.93,0.00,0.00,-0.01,122.0896337,37.5442242,-0.078,-0.062,-0.067,0.000,122.0896450,37.5442263,0.037,0.00,1.50,-6.98,-9482511897602247589101568.000,644.27,25,7,4,0,48,55.0
1753864363.103707,4,4.18,22.60,2.97,0,1100000,11100,000100000,-32765,0,0,0,0,0,0,-0.30,2.64,-5.30,0.94,-3.77,-0.88,0.00,0.00,-0.02,122.0896337,37.5442242,-0.072,-0.064,-0.068,0.000,122.0896450,37.5442263,0.037,0.00,1.50,-6.98,-0.000,643.65,25,7,4,0,48,55.0
1753864363.223751,4,4.18,22.70,2.68,0,1100000,11100,000100000,-32765,0,0,0,0,0,0,-0.39,2.74,-5.21,0.92,-0.14,-0.92,0.00,-0.01,-0.02,122.0896337,37.5442241,-0.080,-0.067,-0.072,0.000,122.0896450,37.5442263,0.037,0.00,1.50,-6.98,0.000,643.00,25,7,4,0,48,55.0
1753864363.343142,4,4.18,22.70,2.68,0,1100000,11100,000100000,-32765,0,0,0,0,0,0,0.07,2.93,-5.02,0.92,3.02,-0.99,0.00,-0.02,-0.03,122.0896337,37.5442241,-0.079,-0.069,-0.076,0.000,122.0896450,37.5442263,0.037,0.00,1.50,-6.98,2361183241434822606848000.000,641.65,25,7,4,0,48,55.0
1753864363.463336,4,4.18,22.70,2.66,0,1100000,11100,000100000,-32765,0,0,0,0,0,0,0.38,3.04,-4.91,1.11,3.04,-1.02,-0.01,-0.02,-0.03,122.0896336,37.5442241,-0.085,-0.073,-0.079,0.000,122.0896450,37.5442263,0.037,0.00,1.50,-6.98,-157822499728414560486339549069312.000,640.92,25,7,4,0,48,55.0
1753864363.584136,4,4.18,22.70,2.66,0,1100000,11100,000100000,-32765,0,0,0,0,0,0,0.69,3.18,-4.80,1.33,2.94,-1.10,-0.01,-0.02,-0.02,122.0896336,37.5442241,-0.090,-0.076,-0.081,0.000,122.0896450,37.5442263,0.037,0.00,1.50,-6.98,616494139564119376899763863552.000,640.11,25,7,4,0,48,56.0
1753864363.703080,4,4.18,22.70,2.66,0,1100000,11100,000100000,-32765,0,0,0,0,0,0,0.98,3.33,-4.67,1.50,2.82,-1.22,0.00,-0.02,-0.02,122.0896336,37.5442241,-0.100,-0.081,-0.087,0.000,122.0896450,37.5442263,0.037,0.00,1.50,-6.98,-136339441844224.000,639.23,25,7,4,0,48,56.0
1753864363.823027,4,4.18,22.70,2.66,0,1100000,11100,000100000,-32765,0,0,0,0,0,0,1.24,3.49,-4.53,1.55,2.38,-1.33,0.00,-0.02,-0.02,122.0896335,37.5442241,-0.102,-0.085,-0.091,0.000,122.0896450,37.5442263,0.037,0.00,1.50,-6.98,0.000,638.27,25,7,4,0,48,56.0
1753864363.943049,4,4.18,22.70,2.66,0,1100000,11100,000100000,-32765,0,0,0,0,0,0,1.60,3.80,-4.24,1.36,1.40,-1.38,0.00,-0.01,-0.02,122.0896335,37.5442240,-0.108,-0.090,-0.097,0.000,122.0896450,37.5442263,0.037,0.00,1.50,-6.98,0.000,636.19,25,7,4,0,48,56.0
1753864364.063834,4,4.18,22.60,2.97,0,1100000,11100,000100000,-32765,0,0,0,0,0,0,1.70,3.92,-4.09,1.19,0.70,-1.34,0.00,-0.01,-0.02,122.0896335,37.5442240,-0.108,-0.093,-0.102,0.000,122.0896450,37.5442263,0.037,0.00,1.50,-6.98,-0.000,635.19,25,7,4,0,48,56.0
1753864364.234009,4,4.18,22.70,2.71,0,1100000,11100,000100000,-32765,0,0,0,0,0,0,1.68,4.03,-3.96,0.95,-0.59,-1.24,0.00,-0.01,-0.02,122.0896334,37.5442240,-0.107,-0.096,-0.105,0.000,122.0896450,37.5442263,0.037,0.00,1.50,-6.98,0.000,634.27,25,7,4,0,48,56.0
1753864364.302738,4,4.18,22.70,2.71,0,1100000,11100,000100000,-32765,0,0,0,0,0,0,1.57,4.11,-3.86,0.72,-1.34,-1.00,0.00,-0.01,-0.02,122.0896334,37.5442240,-0.114,-0.100,-0.108,0.000,122.0896450,37.5442263,0.037,0.00,1.50,-6.98,-7840.000,633.54,25,7,4,0,48,56.0
1753864364.423782,4,4.18,22.70,2.68,0,1100000,11100,000100000,-32765,0,0,0,0,0,0,1.49,4.17,-3.78,0.44,-0.32,-0.65,0.00,0.00,-0.02,122.0896334,37.5442240,-0.099,-0.100,-0.107,0.000,122.0896450,37.5442263,0.037,0.00,1.50,-6.98,-0.000,633.00,25,7,4,0,48,56.0
1753864364.543895,4,4.18,22.70,2.68,0,1100000,11100,000100000,-32765,0,0,0,0,0,0,1.62,4.19,-3.72,-0.14,0.38,-0.14,0.00,0.00,-0.03,122.0896334,37.5442240,-0.102,-0.100,-0.106,0.000,122.0896450,37.5442263,0.037,0.00,1.50,-6.98,40707607370913048607679091221085552640.000,632.58,25,7,4,0,48,57.0
1753864364.663894,4,4.18,22.70,2.68,0,1100000,11100,000100000,-32765,0,0,0,0,0,0,1.61,4.14,-3.71,-0.53,-0.29,-0.06,-0.01,0.00,-0.03,122.0896334,37.5442240,-0.109,-0.102,-0.106,0.000,122.0896450,37.5442263,0.037,0.00,1.50,-6.98,-0.000,632.54,25,7,4,0,48,57.0
1753864364.787936,4,4.18,22.70,2.78,0,1100000,11100,000100000,-32765,0,0,0,0,0,0,1.51,4.07,-3.71,-0.90,-1.18,-0.03,-0.01,0.00,-0.03,122.0896334,37.5442239,-0.109,-0.103,-0.107,0.000,122.0896450,37.5442263,0.037,0.00,1.50,-6.98,-2484595176447329626933538282536960.000,632.54,25,7,4,0,48,57.0
1753864364.903106,4,4.18,22.70,2.78,0,1100000,11100,000100000,-32765,0,0,0,0,0,0,1.36,3.94,-3.71,-1.32,-1.55,-0.03,-0.01,0.00,-0.03,122.0896334,37.5442239,-0.108,-0.104,-0.105,0.000,122.0896450,37.5442263,0.037,0.00,1.50,-6.98,152266624832101773812592279552.000,632.54,25,7,4,0,48,57.0
1753864365.023821,4,4.18,22.70,2.77,0,1100000,11100,000100000,-32765,0,0,0,0,0,0,1.19,3.78,-3.72,-1.74,-1.77,-0.04,-0.01,0.00,-0.04,122.0896334,37.5442239,-0.114,-0.106,-0.108,0.000,122.0896450,37.5442263,0.037,0.00,1.50,-6.98,0.000,632.58,25,7,4,0,48,57.0
1753864365.144099,4,4.18,22.70,2.77,0,1100000,11100,000100000,-32765,0,0,0,0,0,0,0.76,3.37,-3.74,-2.18,-2.41,0.09,-0.01,0.00,-0.05,122.0896334,37.5442239,-0.132,-0.111,-0.114,0.000,122.0896450,37.5442263,0.037,0.00,1.50,-6.98,-0.000,632.69,25,7,4,0,48,57.0
1753864365.475878,4,4.18,22.70,2.68,0,1100000,11100,000100000,-32765,0,0,0,0,0,0,0.49,3.14,-3.76,-2.23,-2.73,0.25,-0.01,0.00,-0.05,122.0896334,37.5442238,-0.132,-0.115,-0.119,0.000,122.0896450,37.5442263,0.037,0.00,1.50,-6.98,-0.000,632.88,25,7,4,0,48,57.0
1753864365.477450,4,4.18,22.70,2.68,0,1100000,11100,000100000,-32765,0,0,0,0,0,0,0.19,2.92,-3.81,-2.27,-3.17,0.45,-0.01,0.01,-0.04,122.0896334,37.5442238,-0.145,-0.121,-0.126,0.000,122.0896450,37.5442263,0.037,0.00,1.50,-6.98,9903520314283042199192993792000.000,633.19,25,7,4,0,48,57.0
1753864365.503750,4,4.18,22.70,2.68,0,1100000,11100,000100000,-32765,0,0,0,0,0,0,-0.18,2.69,-3.86,-2.33,-3.93,0.62,-0.01,0.01,-0.04,122.0896335,37.5442238,-0.161,-0.129,-0.137,0.000,122.0896450,37.5442263,0.037,0.00,1.50,-6.98,8831277394296832.000,633.58,25,7,4,0,48,57.0
1753864365.623753,4,4.18,22.70,2.72,0,1100000,11100,000100000,-32765,0,0,0,0,0,0,-0.62,2.43,-3.93,-2.51,-4.55,0.79,-0.01,0.01,-0.04,122.0896335,37.5442238,-0.154,-0.134,-0.145,0.000,122.0896450,37.5442263,0.037,0.00,1.50,-6.98,138538465099776.000,634.08,25,7,4,0,48,58.0
1753864365.743631,4,4.18,22.70,2.72,0,1100000,11100,000100000,-32765,0,0,0,0,0,0,-1.51,1.85,-4.08,-3.16,-3.94,0.91,-0.02,0.01,-0.04,122.0896335,37.5442237,-0.158,-0.139,-0.150,0.000,122.0896450,37.5442263,0.037,0.00,1.50,-6.98,-0.000,635.11,25,7,4,0,48,58.0
1753864365.863761,4,4.18,22.70,2.76,0,1100000,11100,000100000,-32765,0,0,0,0,0,0,-1.85,1.51,-4.15,-3.33,-3.18,0.82,-0.02,0.01,-0.04,122.0896335,37.5442237,-0.165,-0.144,-0.157,0.000,122.0896450,37.5442263,0.037,0.00,1.50,-6.98,-631349420035543940198553354240.000,635.57,25,7,4,0,48,58.0
1753864365.987908,4,4.18,22.60,3.09,0,1100000,11100,000100000,-32765,0,0,0,0,0,0,-2.13,1.18,-4.20,-3.26,-2.68,0.73,-0.02,0.00,-0.04,122.0896335,37.5442237,-0.170,-0.149,-0.162,0.000,122.0896450,37.5442263,0.037,0.00,1.50,-6.98,0.126,635.96,25,7,4,0,48,58.0
1753864366.103654,4,4.18,22.60,3.09,0,1100000,11100,000100000,-32765,0,0,0,0,0,0,-2.35,0.86,-4.25,-3.00,-2.05,0.71,-0.02,0.00,-0.04,122.0896336,37.5442237,-0.180,-0.155,-0.165,0.000,122.0896450,37.5442263,0.037,0.00,1.50,-6.98,10546852993898868620452570668728320.000,636.31,25,7,4,0,48,58.0
1753864366.223731,4,4.18,22.70,2.72,0,1100000,11100,000100000,-32765,0,0,0,0,0,0,-2.51,0.60,-4.31,-2.49,-1.24,0.79,-0.03,0.00,-0.04,122.0896336,37.5442237,-0.162,-0.157,-0.167,0.000,122.0896450,37.5442263,0.037,0.00,1.50,-6.98,174128867447823979350398724896725139456.000,636.73,25,7,4,0,48,58.0
1753864366.343164,4,4.18,22.70,2.72,0,1100000,11100,000100000,-32765,0,0,0,0,0,0,-3.24,0.15,-4.49,-2.24,-4.18,1.25,-0.02,0.00,-0.04,122.0896336,37.5442237,-0.184,-0.162,-0.172,0.000,122.0896450,37.5442263,0.037,0.00,1.50,-6.98,0.008,637.96,25,7,4,0,48,58.0
1753864366.463950,4,4.18,22.70,2.72,0,1100000,11100,000100000,-32765,0,0,0,0,0,0,-3.63,-0.06,-4.59,-2.19,-3.42,1.38,-0.02,0.01,-0.03,122.0896336,37.5442236,-0.184,-0.167,-0.176,0.000,122.0896450,37.5442263,0.037,0.00,1.50,-6.98,0.000,638.69,25,7,4,0,48,58.0
1753864366.584092,4,4.18,22.70,2.69,0,1100000,11100,000100000,-32765,0,0,0,0,0,0,-3.75,-0.29,-4.68,-2.33,-0.50,1.07,-0.02,0.01,-0.03,122.0896336,37.5442236,-0.191,-0.172,-0.180,0.000,122.0896450,37.5442263,0.037,0.00,1.50,-6.98,0.000,639.30,25,7,4,0,48,59.0
1753864366.703529,4,4.18,22.70,2.69,0,1100000,11100,000100000,-32765,0,0,0,0,0,0,-3.68,-0.52,-4.77,-2.29,1.31,0.89,-0.01,0.01,-0.02,122.0896336,37.5442236,-0.196,-0.177,-0.184,0.000,122.0896450,37.5442263,0.037,0.00,1.50,-6.98,-163204985647974938585333760.000,639.92,25,7,4,0,48,59.0
1753864366.823753,4,4.18,22.70,2.71,0,1100000,11100,000100000,-32765,0,0,0,0,0,0,-3.41,-0.75,-4.85,-2.27,3.12,0.71,-0.01,0.00,-0.01,122.0896336,37.5442236,-0.200,-0.181,-0.191,0.000,122.0896450,37.5442263,0.037,0.00,1.50,-6.98,-146028888064.000,640.46,25,7,4,0,48,59.0
1753864366.943794,4,4.18,22.70,2.71,0,1100000,11100,000100000,-32765,0,0,0,0,0,0,-2.68,-1.20,-5.00,-2.19,4.20,0.75,0.00,0.00,0.00,122.0896336,37.5442236,-0.194,-0.184,-0.193,0.000,122.0896450,37.5442263,0.037,0.00,1.50,-6.98,-0.000,641.57,25,7,4,0,48,59.0
1753864367.063707,4,4.18,22.60,3.14,0,1100000,11100,000100000,-32765,0,0,0,0,0,0,-2.14,-1.42,-5.09,-2.13,5.85,0.66,0.00,0.00,0.01,122.0896336,37.5442235,-0.199,-0.187,-0.196,0.000,122.0896450,37.5442263,0.037,0.00,1.50,-6.98,42010172231608363821039616.000,642.15,25,7,4,0,48,59.0
1753864367.191121,4,4.18,22.70,2.73,0,1100000,11100,000100000,-32765,0,0,0,0,0,0,-1.47,-1.62,-5.16,-1.87,6.89,0.57,0.00,0.00,0.02,122.0896336,37.5442235,-0.183,-0.186,-0.195,0.000,122.0896450,37.5442263,0.037,0.00,1.50,-6.98,-0.000,642.65,25,7,4,0,48,59.0
1753864367.302953,4,4.18,22.70,2.73,0,1100000,11100,000100000,-32765,0,0,0,0,0,0,-0.85,-1.76,-5.21,-1.34,5.69,0.45,0.00,-0.01,0.02,122.0896336,37.5442235,-0.197,-0.188,-0.195,0.000,122.0896450,37.5442263,0.037,0.00,1.50,-6.98,-0.000,643.03,25,7,4,0,48,59.0
1753864367.423710,4,4.18,22.70,2.72,0,1100000,11100,000100000,-32765,0,0,0,0,0,0,-0.43,-1.82,-5.25,-0.28,3.78,0.30,0.00,-0.01,0.03,122.0896336,37.5442235,-0.207,-0.192,-0.196,0.000,122.0896450,37.5442263,0.037,0.00,1.50,-6.98,-0.000,643.30,25,7,4,0,48,59.0
1753864367.543887,4,4.18,22.70,2.72,0,1100000,11100,000100000,-32765,0,0,0,0,0,0,0.20,-1.68,-5.26,1.06,2.59,-0.03,0.01,0.00,0.04,122.0896335,37.5442236,-0.184,-0.190,-0.194,0.000,122.0896450,37.5442263,0.037,0.00,1.50,-6.98,-0.000,643.34,25,7,4,0,49,0.0
1753864367.663733,4,4.18,22.70,2.73,0,1100000,11100,000100000,-32765,0,0,0,0,0,0,0.44,-1.57,-5.26,1.10,2.56,0.00,0.01,0.00,0.04,122.0896335,37.5442236,-0.191,-0.190,-0.192,0.000,122.0896450,37.5442263,0.037,0.00,1.50,-6.98,-0.000,643.34,25,7,4,0,49,0.0
1753864367.784197,4,4.18,22.70,2.73,0,1100000,11100,000100000,-32765,0,0,0,0,0,0,0.74,-1.47,-5.26,0.93,2.89,0.14,0.01,0.00,0.04,122.0896335,37.5442236,-0.177,-0.188,-0.191,0.000,122.0896450,37.5442263,0.037,0.00,1.50,-6.98,-0.000,643.38,25,7,4,0,49,0.0
1753864367.902963,4,4.18,22.70,2.73,0,1100000,11100,000100000,-32765,0,0,0,0,0,0,0.82,-1.39,-5.30,0.73,0.00,0.39,0.00,0.00,0.04,122.0896335,37.5442236,-0.179,-0.186,-0.188,0.000,122.0896450,37.5442263,0.037,0.00,1.50,-6.98,2332033024.000,643.61,25,7,4,0,49,0.0
1753864368.023128,4,4.18,22.60,2.98,0,1100000,11100,000100000,-32765,0,0,0,0,0,0,0.74,-1.34,-5.35,0.45,-0.86,0.51,0.00,0.00,0.04,122.0896335,37.5442236,-0.181,-0.185,-0.182,0.000,122.0896450,37.5442263,0.037,0.00,1.50,-6.98,0.000,643.96,25,7,4,0,49,0.0
1753864368.143243,4,4.18,22.60,2.98,0,1100000,11100,000100000,-32765,0,0,0,0,0,0,0.58,-1.31,-5.45,-0.22,-0.53,0.44,0.00,0.00,0.04,122.0896335,37.5442236,-0.170,-0.182,-0.180,0.000,122.0896450,37.5442263,0.037,0.00,1.50,-6.98,0.000,644.69,25,7,4,0,49,0.0
1753864368.263691,4,4.18,22.60,2.93,0,1100000,11100,000100000,-32765,0,0,0,0,0,0,0.49,-1.38,-5.48,-0.85,-0.91,0.27,0.00,0.00,0.04,122.0896335,37.5442236,-0.161,-0.178,-0.174,0.000,122.0896450,37.5442263,0.037,0.00,1.50,-6.98,569344.000,644.92,25,7,4,0,49,0.0
1753864368.387885,4,4.18,22.70,2.74,0,1100000,11100,000100000,-32765,0,0,0,0,0,0,0.36,-1.52,-5.50,-1.51,-1.50,0.15,0.00,0.00,0.02,122.0896335,37.5442236,-0.155,-0.173,-0.169,0.000,122.0896450,37.5442263,0.037,0.00,1.50,-6.98,-0.000,645.03,25,7,4,0,49,0.0
1753864368.503203,4,4.18,22.70,2.74,0,1100000,11100,000100000,-32765,0,0,0,0,0,0,0.15,-1.71,-5.52,-2.01,-2.31,0.13,-0.01,0.01,0.02,122.0896335,37.5442236,-0.143,-0.167,-0.162,0.000,122.0896450,37.5442263,0.037,0.00,1.50,-6.98,-0.000,645.15,25,7,4,0,49,0.0
1753864368.623026,4,4.18,22.70,2.72,0,1100000,11100,000100000,-32765,0,0,0,0,0,0,-0.10,-1.92,-5.53,-2.13,-2.71,0.22,-0.01,0.01,0.02,122.0896336,37.5442236,-0.141,-0.162,-0.154,0.000,122.0896450,37.5442263,0.037,0.00,1.50,-6.98,-0.000,645.26,25,7,4,0,49,1.0
1753864368.743665,4,4.18,22.70,2.72,0,1100000,11100,000100000,-32765,0,0,0,0,0,0,-0.49,-2.28,-5.60,-1.55,-1.60,0.41,-0.01,0.01,0.01,122.0896336,37.5442235,-0.137,-0.157,-0.147,0.000,122.0896450,37.5442263,0.037,0.00,1.50,-6.98,-0.000,645.76,25,7,4,0,49,1.0
1753864369.076405,4,4.18,22.70,2.71,0,1100000,11100,000100000,-32765,0,0,0,0,0,0,-0.69,-2.41,-5.64,-1.24,-2.10,0.43,-0.01,0.01,0.01,122.0896336,37.5442235,-0.149,-0.155,-0.145,0.000,122.0896450,37.5442263,0.037,0.00,1.50,-6.98,-0.000,646.03,25,7,4,0,49,1.0
1753864369.077374,4,4.18,22.70,2.70,0,1100000,11100,000100000,-32765,0,0,0,0,0,0,-0.90,-2.52,-5.67,-1.07,-1.91,0.34,-0.01,0.01,0.01,122.0896336,37.5442235,-0.145,-0.153,-0.143,0.000,122.0896450,37.5442263,0.037,0.00,1.50,-6.98,-0.000,646.26,25,7,4,0,49,1.0
1753864369.103716,4,4.18,22.70,2.70,0,1100000,11100,000100000,-32765,0,0,0,0,0,0,-1.01,-2.62,-5.69,-1.05,-0.83,0.22,-0.01,0.01,0.01,122.0896337,37.5442235,-0.142,-0.151,-0.143,0.000,122.0896450,37.5442263,0.037,0.00,1.50,-6.98,-0.000,646.38,25,7,4,0,49,1.0
1753864369.222779,4,4.18,22.60,3.06,0,1100000,11100,000100000,-32765,0,0,0,0,0,0,-1.02,-2.73,-5.71,-1.15,0.08,0.21,0.00,0.01,0.00,122.0896337,37.5442235,-0.153,-0.151,-0.145,0.000,122.0896450,37.5442263,0.037,0.00,1.50,-6.98,-0.000,646.53,25,7,4,0,49,1.0
1753864369.344120,4,4.18,22.60,3.06,0,1100000,11100,000100000,-32765,0,0,0,0,0,0,-0.99,-2.98,-5.77,-1.31,-0.09,0.44,-0.01,0.01,0.00,122.0896337,37.5442235,-0.144,-0.150,-0.147,0.000,122.0896450,37.5442263,0.037,0.00,1.50,-6.98,-0.000,646.96,25,7,4,0,49,1.0
1753864369.463771,4,4.18,22.70,2.72,0,1100000,11100,000100000,-32765,0,0,0,0,0,0,-1.05,-3.11,-5.82,-1.29,-0.65,0.51,0.00,0.01,0.00,122.0896338,37.5442235,-0.154,-0.151,-0.148,0.000,122.0896450,37.5442263,0.037,0.00,1.50,-6.98,-0.000,647.30,25,7,4,0,49,1.0
1753864369.588349,4,4.18,22.70,2.76,0,1100000,11100,000100000,-32765,0,0,0,0,0,0,-1.14,-3.23,-5.87,-1.15,-1.00,0.44,0.00,0.01,0.00,122.0896338,37.5442235,-0.143,-0.149,-0.147,0.000,122.0896450,37.5442263,0.037,0.00,1.50,-6.98,-0.000,647.61,25,7,4,0,49,2.0
1753864369.703676,4,4.18,22.70,2.76,0,1100000,11100,000100000,-32765,0,0,0,0,0,0,-1.24,-3.32,-5.89,-0.85,-0.93,0.27,0.00,0.01,0.00,122.0896338,37.5442234,-0.134,-0.146,-0.146,0.000,122.0896450,37.5442263,0.037,0.00,1.50,-6.98,-0.000,647.80,25,7,4,0,49,2.0
1753864369.830913,4,4.18,22.70,2.75,0,1100000,11100,000100000,-32765,0,0,0,0,0,0,-1.29,-3.37,-5.91,-0.43,-0.21,0.08,0.00,0.01,0.00,122.0896338,37.5442234,-0.127,-0.142,-0.141,0.000,122.0896450,37.5442263,0.037,0.00,1.50,-6.98,-0.000,647.88,25,7,4,0,49,2.0
1753864369.943855,4,4.18,22.70,2.75,0,1100000,11100,000100000,-32765,0,0,0,0,0,0,-1.13,-3.36,-5.90,0.37,1.10,-0.04,0.00,0.01,0.00,122.0896339,37.5442234,-0.142,-0.142,-0.140,0.000,122.0896450,37.5442263,0.037,0.00,1.50,-6.98,-0.000,647.84,25,7,4,0,49,2.0
1753864370.063760,4,4.18,22.70,2.73,0,1100000,11100,000100000,-32765,0,0,0,0,0,0,-1.03,-3.29,-5.90,0.75,0.95,0.00,0.00,0.01,0.01,122.0896339,37.5442234,-0.134,-0.141,-0.136,0.000,122.0896450,37.5442263,0.037,0.00,1.50,-6.98,-0.000,647.84,25,7,4,0,49,2.0
1753864370.184231,4,4.18,22.70,2.69,0,1100000,11100,000100000,-32765,0,0,0,0,0,0,-0.97,-3.19,-5.91,1.09,0.45,0.00,0.00,0.01,0.01,122.0896339,37.5442235,-0.114,-0.135,-0.130,0.000,122.0896450,37.5442263,0.037,0.00,1.50,-6.98,-0.000,647.88,25,7,4,0,49,2.0
1753864370.302975,4,4.18,22.70,2.69,0,1100000,11100,000100000,-32765,0,0,0,0,0,0,-0.98,-3.06,-5.90,1.38,-0.31,-0.09,0.00,0.01,0.01,122.0896339,37.5442235,-0.119,-0.132,-0.127,0.000,122.0896450,37.5442263,0.037,0.00,1.50,-6.98,-0.000,647.84,25,7,4,0,49,2.0
1753864370.423164,4,4.18,22.60,3.00,0,1100000,11100,000100000,-32765,0,0,0,0,0,0,-1.07,-2.91,-5.88,1.59,-0.88,-0.25,0.00,0.01,0.01,122.0896339,37.5442235,-0.122,-0.130,-0.126,0.000,122.0896450,37.5442263,0.037,0.00,1.50,-6.98,-0.000,647.69,25,7,4,0,49,2.0
1753864370.543203,4,4.18,22.60,3.00,0,1100000,11100,000100000,-32765,0,0,0,0,0,0,-1.23,-2.56,-5.81,1.78,-0.57,-0.41,0.00,0.02,0.01,122.0896339,37.5442235,-0.122,-0.128,-0.122,0.000,122.0896450,37.5442263,0.037,0.00,1.50,-6.98,-0.000,647.19,25,7,4,0,49,3.0
1753864370.664239,4,4.18,22.60,2.94,0,1100000,11100,000100000,-32765,0,0,0,0,0,0,-1.26,-2.38,-5.77,1.84,-0.36,-0.30,0.00,0.02,0.01,122.0896340,37.5442235,-0.105,-0.124,-0.117,0.000,122.0896450,37.5442263,0.037,0.00,1.50,-6.98,-0.000,646.96,25,7,4,0,49,3.0
1753864370.787994,4,4.18,22.70,2.75,0,1100000,11100,000100000,-32765,0,0,0,0,0,0,-1.31,-2.19,-5.76,1.90,-0.46,-0.10,0.00,0.02,0.01,122.0896340,37.5442235,-0.106,-0.120,-0.115,0.000,122.0896450,37.5442263,0.037,0.00,1.50,-6.98,-0.000,646.88,25,7,4,0,49,3.0
1753864370.903690,4,4.18,22.70,2.75,0,1100000,11100,000100000,-32765,0,0,0,0,0,0,-1.38,-2.00,-5.77,1.88,-0.81,0.09,0.00,0.02,0.00,122.0896340,37.5442235,-0.112,-0.119,-0.113,0.000,122.0896450,37.5442263,0.037,0.00,1.50,-6.98,-0.000,646.92,25,7,4,0,49,3.0
1753864371.023627,4,4.18,22.70,2.74,0,1100000,11100,000100000,-32765,0,0,0,0,0,0,-1.51,-1.82,-5.79,1.82,-1.51,0.20,0.00,0.02,0.00,122.0896341,37.5442235,-0.117,-0.118,-0.112,0.000,122.0896450,37.5442263,0.037,0.00,1.50,-6.98,-0.000,647.07,25,7,4,0,49,3.0
1753864371.150988,4,4.18,22.70,2.74,0,1100000,11100,000100000,-32765,0,0,0,0,0,0,-1.97,-1.52,-5.82,1.25,-2.82,0.12,0.00,0.02,0.00,122.0896341,37.5442235,-0.122,-0.119,-0.112,0.000,122.0896450,37.5442263,0.037,0.00,1.50,-6.98,-0.000,647.26,25,7,4,0,49,3.0
1753864371.264247,4,4.18,22.70,2.75,0,1100000,11100,000100000,-32765,0,0,0,0,0,0,-2.28,-1.42,-5.81,0.87,-3.07,0.00,0.00,0.02,0.00,122.0896342,37.5442235,-0.118,-0.119,-0.115,0.000,122.0896450,37.5442263,0.037,0.00,1.50,-6.98,172073665460667858210978267136.000,647.23,25,7,4,0,49,3.0
1753864371.387919,4,4.18,22.70,2.75,0,1100000,11100,000100000,-32765,0,0,0,0,0,0,-2.55,-1.37,-5.79,0.45,-2.50,-0.15,0.00,0.02,0.00,122.0896342,37.5442235,-0.115,-0.118,-0.117,0.000,122.0896450,37.5442263,0.037,0.00,1.50,-6.98,0.000,647.07,25,7,4,0,49,3.0
1753864371.503077,4,4.18,22.70,2.74,0,1100000,11100,000100000,-32765,0,0,0,0,0,0,-2.76,-1.35,-5.76,0.09,-2.08,-0.22,0.00,0.02,0.00,122.0896342,37.5442236,-0.132,-0.121,-0.121,0.000,122.0896450,37.5442263,0.037,0.00,1.50,-6.98,0.000,646.84,25,7,4,0,49,3.0
1753864371.623688,4,4.28,22.60,3.01,0,1100000,11100,000100000,-32765,0,0,0,0,0,0,-2.97,-1.36,-5.72,-0.13,-1.98,-0.24,0.00,0.02,0.00,122.0896343,37.5442236,-0.126,-0.122,-0.123,0.000,122.0896450,37.5442263,0.037,0.00,1.50,-6.98,0.000,646.61,25,7,4,0,49,4.0
1753864371.743826,4,4.28,22.60,3.01,0,1100000,11100,000100000,-32765,0,0,0,0,0,0,-3.13,-1.43,-5.65,-0.48,-0.06,-0.31,0.00,0.01,0.00,122.0896343,37.5442236,-0.118,-0.121,-0.122,0.000,122.0896450,37.5442263,0.037,0.00,1.50,-6.98,176203433431723886808041745547264.000,646.11,25,7,4,0,49,4.0
1753864371.864254,4,4.28,22.70,2.74,0,1100000,11100,000100000,-32765,0,0,0,0,0,0,-3.08,-1.49,-5.62,-0.59,0.64,-0.32,0.01,0.01,0.00,122.0896343,37.5442236,-0.115,-0.120,-0.121,0.000,122.0896450,37.5442263,0.037,0.00,1.50,-6.98,-0.000,645.88,25,7,4,0,49,4.0
1753864371.988464,4,4.28,22.70,2.76,0,1100000,11100,000100000,-32765,0,0,0,0,0,0,-3.01,-1.55,-5.59,-0.65,0.71,-0.32,0.01,0.01,0.00,122.0896344,37.5442236,-0.119,-0.120,-0.122,0.000,122.0896450,37.5442263,0.037,0.00,1.50,-6.98,-0.000,645.65,25,7,4,0,49,4.0
1753864372.103663,4,4.28,22.70,2.76,0,1100000,11100,000100000,-32765,0,0,0,0,0,0,-3.01,-1.62,-5.55,-0.68,-0.27,-0.24,0.01,0.01,0.00,122.0896344,37.5442236,-0.122,-0.120,-0.120,0.000,122.0896450,37.5442263,0.037,0.00,1.50,-6.98,-0.000,645.42,25,7,4,0,49,4.0
1753864372.223569,4,4.28,22.70,2.71,0,1100000,11100,000100000,-32765,0,0,0,0,0,0,-3.08,-1.69,-5.53,-0.78,-0.90,-0.21,0.01,0.01,0.00,122.0896344,37.5442237,-0.106,-0.117,-0.116,0.000,122.0896450,37.5442263,0.037,0.00,1.50,-6.98,-0.000,645.23,25,7,4,0,49,4.0
1753864372.343867,4,4.28,22.70,2.71,0,1100000,11100,000000000,-32765,-37,-15,-674,0,1522,457,-3.21,-1.89,-5.46,-1.11,-0.45,-0.29,0.01,0.01,0.00,122.0896344,37.5442237,-0.106,-0.115,-0.114,0.000,122.0896344,37.5442235,-0.120,0.00,1.50,-4.05,-0.000,9.87,25,7,4,0,49,4.0
1753864372.464309,4,4.28,22.60,3.05,0,1100000,11100,000000000,-32765,-36,-71,264,0,1537,444,-3.27,-2.01,-5.41,-1.14,-0.74,-0.32,0.01,0.01,0.00,122.0896345,37.5442237,-0.125,-0.117,-0.116,0.000,122.0896344,37.5442235,-0.120,0.00,1.50,-4.05,-0.000,9.56,25,7,4,0,49,4.0
1753864372.584876,4,4.28,22.70,2.74,0,1100000,11100,000000000,-32765,-36,-70,358,0,1586,458,-3.42,-2.11,-5.37,-0.94,-1.72,-0.30,0.01,0.01,0.00,122.0896345,37.5442237,-0.127,-0.119,-0.117,0.000,122.0896344,37.5442235,-0.120,0.00,1.50,-3.96,-0.000,9.88,25,7,4,0,49,5.0
1753864372.703660,4,4.28,22.70,2.74,0,1100000,11100,000000000,-32765,-36,-71,429,0,1622,448,-3.65,-2.13,-5.30,0.06,-2.44,-0.54,0.01,0.02,0.00,122.0896345,37.5442237,-0.128,-0.121,-0.118,0.000,122.0896344,37.5442235,-0.120,0.00,1.50,-3.96,-0.000,9.42,25,7,4,0,49,5.0
1753864372.823692,4,4.28,22.70,2.73,0,1100000,11100,000000000,-32765,-36,-70,480,0,1607,448,-3.87,-1.99,-5.22,1.61,-2.14,-0.72,0.01,0.02,0.00,122.0896345,37.5442237,-0.129,-0.123,-0.123,0.000,122.0896344,37.5442235,-0.120,0.00,1.50,-3.91,-0.000,9.23,25,7,4,0,49,5.0
1753864372.943710,4,4.28,22.70,3.36,0,1100000,11100,000000000,-32765,-37,-69,230,0,1431,449,-3.88,-1.45,-5.08,3.23,0.86,-1.03,0.02,0.00,0.00,122.0896345,37.5442237,-0.125,-0.123,-0.127,0.000,122.0896344,37.5442235,-0.120,0.00,1.50,-3.80,-0.000,8.96,25,7,4,0,49,5.0
1753864373.063900,4,4.28,22.70,3.37,0,1100000,11100,000000000,-32765,-55,-75,13,0,1238,426,-3.78,-1.08,-5.00,3.66,1.10,-1.05,0.02,0.00,0.00,122.0896345,37.5442238,-0.120,-0.122,-0.126,0.000,122.0896344,37.5442235,-0.120,0.00,1.50,-3.80,0.000,8.42,25,7,4,0,49,5.0
1753864373.187987,4,4.28,22.70,4.16,0,1100000,11100,000000000,-32765,-55,-74,-153,0,1062,471,-3.69,-0.69,-4.93,3.95,0.71,-1.01,0.02,0.00,0.01,122.0896345,37.5442238,-0.117,-0.121,-0.124,0.000,122.0896344,37.5442235,-0.120,0.00,1.50,-3.58,-0.000,9.47,25,7,4,0,49,5.0
1753864373.303170,4,4.28,22.70,4.15,0,1100000,11100,000000000,-32765,-56,-74,-280,0,901,447,-3.67,-0.29,-4.86,4.00,-0.07,-0.97,0.02,0.00,0.01,122.0896345,37.5442238,-0.114,-0.120,-0.121,0.000,122.0896344,37.5442235,-0.120,0.00,1.50,-3.58,0.000,8.97,25,7,4,0,49,5.0
1753864373.423666,4,4.28,22.60,4.38,0,1100000,11100,000000000,-32765,-75,-80,558,0,730,446,-3.70,0.08,-4.79,3.68,-0.43,-0.84,0.02,0.00,0.01,122.0896345,37.5442239,-0.131,-0.122,-0.121,0.000,122.0896344,37.5442235,-0.120,0.00,1.50,-3.50,-0.000,9.06,25,7,4,0,49,5.0
1753864373.543993,4,4.28,22.60,4.26,0,1100000,11100,000000000,-32765,-75,-79,594,0,391,450,-3.74,0.69,-4.66,2.70,0.18,-0.83,0.02,0.00,0.01,122.0896345,37.5442239,-0.132,-0.124,-0.123,0.000,122.0896344,37.5442235,-0.120,0.00,1.50,-3.36,0.000,9.16,25,7,4,0,49,6.0
1753864373.663265,4,4.38,22.70,4.25,0,1100000,11100,000000000,-32765,-75,-79,610,0,192,433,-3.63,0.97,-4.60,2.72,1.42,-0.93,0.01,0.00,0.00,122.0896345,37.5442239,-0.132,-0.126,-0.125,0.000,122.0896344,37.5442235,-0.120,0.00,1.50,-3.36,0.000,8.70,25,7,4,0,49,6.0
1753864373.784110,4,4.38,22.70,3.73,0,1100000,11100,000000000,-32765,-75,-78,-317,0,-6,478,-3.39,1.25,-4.53,2.77,2.55,-1.03,0.01,0.00,0.00,122.0896345,37.5442239,-0.113,-0.123,-0.125,0.000,122.0896344,37.5442235,-0.120,0.00,1.50,-3.16,-2535301200456458802993406410752.000,9.60,25,7,4,0,49,6.0
1753864373.903658,4,4.38,22.70,3.42,0,1100000,11100,000000000,-32765,-94,-83,-403,0,-166,458,-3.08,1.52,-4.45,2.57,3.06,-1.12,0.01,0.00,0.00,122.0896345,37.5442240,-0.112,-0.121,-0.124,0.000,122.0896344,37.5442235,-0.120,0.00,1.50,-3.16,-150525431641469941186560.000,9.06,25,7,4,0,49,6.0
1753864374.023637,4,4.38,22.70,3.43,0,1100000,11100,000000000,-32765,-94,-82,-152,0,-280,450,-2.77,1.75,-4.36,2.07,3.03,-1.14,0.01,0.00,0.00,122.0896345,37.5442240,-0.117,-0.120,-0.121,0.000,122.0896344,37.5442235,-0.120,0.00,1.50,-3.10,nan,8.86,25,7,4,0,49,6.0
1753864374.212063,4,4.38,22.70,3.39,0,1100000,11100,000000000,-32765,-94,-81,-372,0,-308,434,-2.31,1.96,-4.15,0.24,1.54,-1.20,0.01,0.00,0.00,122.0896345,37.5442240,-0.112,-0.119,-0.117,0.000,122.0896344,37.5442235,-0.120,0.00,1.50,-2.95,0.000,8.45,25,7,4,0,49,6.0
1753864374.262689,4,4.38,22.70,3.39,0,1100000,11100,000000000,-32765,-94,-81,-435,0,-263,398,-2.20,1.94,-4.03,-0.37,0.83,-1.25,0.00,0.00,0.00,122.0896345,37.5442240,-0.111,-0.117,-0.113,0.000,122.0896344,37.5442235,-0.120,0.00,1.50,-2.95,2032.000,7.61,25,7,4,0,49,6.0
1753864374.388130,4,4.38,22.70,3.27,0,1100000,11100,000000000,-32765,-94,-80,-170,0,-181,387,-2.17,1.85,-3.90,-1.15,0.06,-1.29,0.00,0.00,0.00,122.0896345,37.5442240,-0.116,-0.117,-0.113,0.000,122.0896344,37.5442235,-0.120,0.00,1.50,-2.86,-0.000,7.31,25,7,4,0,49,6.0
1753864374.503751,4,4.38,22.70,3.22,0,1100000,11100,000000000,-32765,-94,-79,-909,0,-68,345,-2.22,1.71,-3.76,-1.63,-0.76,-1.30,0.00,0.00,0.00,122.0896345,37.5442240,-0.101,-0.114,-0.111,0.000,122.0896344,37.5442235,-0.120,0.00,1.50,-2.86,0.000,6.35,25,7,4,0,49,6.0
1753864374.623680,4,4.38,22.60,3.66,0,1100000,11100,000000000,-32765,-94,-79,-529,0,41,403,-2.33,1.54,-3.62,-1.71,-1.31,-1.29,0.00,0.00,-0.01,122.0896345,37.5442240,-0.109,-0.113,-0.110,0.000,122.0896344,37.5442235,-0.120,0.00,1.50,-2.53,-8556380160.000,7.66,25,7,4,0,49,7.0
1753864374.743700,4,4.38,22.60,3.83,0,1100000,11100,000000000,-32765,-94,-77,-581,0,208,398,-2.61,1.23,-3.34,-1.46,-1.52,-1.26,0.00,0.00,-0.01,122.0896345,37.5442240,-0.108,-0.112,-0.109,0.000,122.0896344,37.5442235,-0.120,0.00,1.50,-2.26,0.000,7.59,25,7,4,0,49,7.0
1753864374.863703,4,4.38,22.70,3.44,0,1100000,11100,000000000,-32765,-94,-76,-1223,0,256,355,-2.75,1.12,-3.20,-1.15,-1.39,-1.30,0.00,0.00,0.00,122.0896345,37.5442240,-0.094,-0.108,-0.106,0.000,122.0896344,37.5442235,-0.120,0.00,1.50,-2.26,163526927429441592793074713493504.000,6.59,25,7,4,0,49,7.0
1753864374.984122,4,4.38,22.70,3.21,0,1100000,11100,000000000,-32765,-113,-79,-1709,0,286,315,-2.86,1.03,-3.05,-0.87,-1.10,-1.45,0.00,0.00,0.00,122.0896345,37.5442241,-0.085,-0.103,-0.099,0.000,122.0896344,37.5442235,-0.120,0.00,1.50,-2.26,-135266304.000,5.55,25,7,4,0,49,7.0
1753864375.103886,4,4.38,22.70,3.31,0,1100000,11100,000000000,-32765,-113,-78,-1459,0,289,271,-2.92,0.98,-2.88,-0.53,-0.66,-1.65,0.00,0.00,0.00,122.0896345,37.5442241,-0.090,-0.101,-0.097,0.000,122.0896344,37.5442235,-0.120,0.00,1.50,-2.26,-171470411456254147604591110776164450304.000,4.36,25,7,4,0,49,7.0
1753864375.223790,4,4.38,22.70,3.30,0,1100000,11100,000000000,-32765,-113,-76,-1268,0,258,224,-2.92,0.96,-2.70,-0.29,0.15,-1.88,0.00,0.00,0.00,122.0896345,37.5442241,-0.094,-0.099,-0.094,0.000,122.0896344,37.5442235,-0.120,0.00,1.50,-2.26,0.000,3.09,25,7,4,0,49,7.0
1753864375.463744,4,4.38,22.70,3.31,0,1100000,11100,000000000,-32765,-114,-71,-608,0,255,314,-2.64,1.03,-2.08,0.26,-0.48,-2.03,0.01,0.00,-0.01,122.0896345,37.5442241,-0.107,-0.101,-0.094,0.000,122.0896344,37.5442235,-0.120,0.00,1.50,-1.38,-135266304.000,4.95,25,7,4,0,49,7.0
1753864375.587862,4,4.38,22.70,3.52,0,1100000,11100,000000000,-32765,-114,-70,-621,0,337,243,-2.83,1.07,-1.88,0.21,-2.45,-1.85,0.01,0.00,-0.01,122.0896345,37.5442241,-0.107,-0.102,-0.096,0.000,122.0896344,37.5442235,-0.120,0.00,1.50,-1.38,-0.000,3.56,25,7,4,0,49,8.0
1753864375.926040,4,4.38,22.70,3.44,0,1100000,11100,000000000,-32765,-114,-69,-316,0,331,178,-3.09,1.09,-1.70,0.10,-2.62,-1.70,0.01,0.00,0.00,122.0896345,37.5442241,-0.113,-0.104,-0.102,0.000,122.0896344,37.5442235,-0.120,0.00,1.50,-1.38,-0.000,2.26,25,7,4,0,49,8.0
1753864375.926907,4,4.38,22.60,3.54,0,1100000,11100,000000000,-32765,-114,-68,-399,0,263,122,-3.26,1.13,-1.52,0.21,-1.57,-1.70,0.01,0.00,0.00,122.0896345,37.5442241,-0.111,-0.106,-0.106,0.000,122.0896344,37.5442235,-0.120,0.00,1.50,-1.38,159694265067814055461987024896.000,1.02,25,7,4,0,49,8.0
