pc_timestamp,mode,temperature,control_voltage,power_current,water_leak,sensor_status,sensor_update,fault_status,power_status,force_cmd1,force_cmd2,force_cmd3,force_cmd4,force_cmd5,force_cmd6,roll,pitch,yaw,angular_vel_x,angular_vel_y,angular_vel_z,linear_vel_x,linear_vel_y,linear_vel_z,longitude,latitude,depth_raw,depth_lpf,depth_ma,altitude,target_longitude,target_latitude,target_depth,target_roll,target_pitch,target_yaw,target_altitude,target_speed,utc_year,utc_month,utc_day,utc_hour,utc_minute,utc_second
1753884872.384535,1,4.76,23.70,1.81,0,1000000,10100,000100000,-32767,0,0,0,0,0,0,-2.06,3.05,-16.70,-0.50,-0.10,0.13,0.00,0.00,0.00,122.0896987,37.5442123,-0.164,-0.164,-0.164,0.000,0.0000000,0.0000000,0.000,0.00,0.00,0.00,0.000,0.00,25,7,4,0,17,39.0
1753884872.386330,1,4.76,23.70,2.44,0,1000000,10100,000100000,-32767,0,0,0,0,0,0,-2.12,2.99,-16.70,-0.54,-0.67,0.00,0.00,0.00,0.00,122.0896987,37.5442123,-0.157,-0.162,-0.160,0.000,0.0000000,0.0000000,0.000,0.00,0.00,0.00,0.000,0.00,25,7,4,0,17,40.0
1753884872.387540,1,4.76,23.70,2.43,0,1000000,10100,000100000,-32767,0,0,0,0,0,0,-2.25,2.87,-16.68,-0.65,-0.61,-0.09,0.00,0.00,0.00,122.0896987,37.5442123,-0.140,-0.158,-0.154,0.000,0.0000000,0.0000000,0.000,0.00,0.00,0.00,0.000,0.00,25,7,4,0,17,40.0
1753884872.388139,1,4.76,23.70,2.65,0,1000000,10100,000100000,-32767,0,0,0,0,0,0,-2.29,2.80,-16.67,-0.69,-0.32,-0.11,0.00,0.00,0.00,122.0896987,37.5442123,-0.151,-0.157,-0.153,0.000,0.0000000,0.0000000,0.000,0.00,0.00,0.00,0.000,0.00,25,7,4,0,17,40.0
1753884872.388768,1,4.76,23.70,2.68,0,1000000,10100,000100000,-32767,0,0,0,0,0,0,-2.30,2.74,-16.64,-0.63,-0.11,-0.21,0.00,0.00,0.00,122.0896987,37.5442123,-0.140,-0.153,-0.150,0.000,0.0000000,0.0000000,0.000,0.00,0.00,0.00,0.000,0.00,25,7,4,0,17,40.0
1753884872.389505,1,4.76,23.70,2.69,0,1000000,10100,000100000,-32767,0,0,0,0,0,0,-2.31,2.68,-16.62,-0.51,-0.13,-0.21,0.00,0.00,0.00,122.0896987,37.5442123,-0.139,-0.150,-0.145,0.000,0.0000000,0.0000000,0.000,0.00,0.00,0.00,0.000,0.00,25,7,4,0,17,40.0
1753884872.390227,1,4.76,23.70,2.63,0,1000000,10100,000100000,-32767,0,0,0,0,0,0,-2.32,2.63,-16.61,-0.53,-0.14,-0.10,0.00,0.00,0.00,122.0896987,37.5442123,-0.156,-0.152,-0.145,0.000,0.0000000,0.0000000,0.000,0.00,0.00,0.00,0.000,0.00,25,7,4,0,17,40.0
1753884872.390938,1,4.76,23.70,2.65,0,1000000,10100,000100000,-32767,0,0,0,0,0,0,-2.36,2.52,-16.58,-0.59,-0.07,-0.05,0.00,0.00,0.00,122.0896987,37.5442123,-0.169,-0.155,-0.151,0.000,0.0000000,0.0000000,0.000,0.00,0.00,0.00,0.000,0.00,25,7,4,0,17,40.0
1753884872.392447,1,4.76,23.70,2.56,0,1000000,10100,000100000,-32767,0,0,0,0,0,0,-2.35,2.46,-16.57,-0.64,0.13,-0.08,0.00,0.00,0.00,122.0896987,37.5442123,-0.160,-0.156,-0.153,0.000,0.0000000,0.0000000,0.000,0.00,0.00,0.00,0.000,0.00,25,7,4,0,17,40.0
1753884872.393903,1,4.76,23.70,2.57,0,1000000,10100,000100000,-32767,0,0,0,0,0,0,-2.32,2.40,-16.56,-0.61,0.30,-0.11,0.00,0.00,0.00,122.0896987,37.5442123,-0.154,-0.156,-0.156,0.000,0.0000000,0.0000000,0.000,0.00,0.00,0.00,0.000,0.00,25,7,4,0,17,41.0
1753884872.394515,1,4.76,23.70,2.57,0,1000000,10100,000100000,-32767,0,0,0,0,0,0,-2.28,2.34,-16.55,-0.54,0.36,-0.10,0.00,0.00,0.00,122.0896987,37.5442123,-0.161,-0.157,-0.160,0.000,0.0000000,0.0000000,0.000,0.00,0.00,0.00,0.000,0.00,25,7,4,0,17,41.0
1753884872.395416,1,4.76,23.70,2.56,0,1000000,10100,000100000,-32767,0,0,0,0,0,0,-2.25,2.29,-16.53,-0.43,0.32,-0.10,0.00,0.00,0.00,122.0896987,37.5442123,-0.155,-0.156,-0.160,0.000,0.0000000,0.0000000,0.000,0.00,0.00,0.00,0.000,0.00,25,7,4,0,17,41.0
1753884872.396470,1,4.76,23.70,2.53,0,1000000,10100,000100000,-32767,0,0,0,0,0,0,-2.20,2.22,-16.51,-0.36,0.23,-0.16,0.00,0.00,0.00,122.0896987,37.5442123,-0.168,-0.159,-0.160,0.000,0.0000000,0.0000000,0.000,0.00,0.00,0.00,0.000,0.00,25,7,4,0,17,41.0
1753884872.397238,1,4.76,23.70,2.53,0,1000000,10100,000100000,-32767,0,0,0,0,0,0,-2.16,2.18,-16.49,-0.37,0.34,-0.19,0.00,0.00,0.00,122.0896987,37.5442123,-0.179,-0.163,-0.163,0.000,0.0000000,0.0000000,0.000,0.00,0.00,0.00,0.000,0.00,25,7,4,0,17,41.0
1753884872.397882,1,4.76,23.70,2.56,0,1000000,10100,000100000,-32767,0,0,0,0,0,0,-2.12,2.14,-16.47,-0.40,0.48,-0.20,0.00,0.00,0.00,122.0896987,37.5442123,-0.180,-0.166,-0.169,0.000,0.0000000,0.0000000,0.000,0.00,0.00,0.00,0.000,0.00,25,7,4,0,17,41.0
1753884872.398690,1,4.76,23.70,2.55,0,1000000,10100,000100000,-32767,0,0,0,0,0,0,-2.07,2.10,-16.45,-0.39,0.48,-0.19,0.00,0.00,0.00,122.0896987,37.5442123,-0.182,-0.169,-0.173,0.000,0.0000000,0.0000000,0.000,0.00,0.00,0.00,0.000,0.00,25,7,4,0,17,41.0
1753884872.399775,1,4.76,23.70,2.55,0,1000000,10100,000100000,-32767,0,0,0,0,0,0,-2.03,2.07,-16.43,-0.37,0.37,-0.13,0.00,0.00,0.00,122.0896987,37.5442123,-0.189,-0.173,-0.180,0.000,0.0000000,0.0000000,0.000,0.00,0.00,0.00,0.000,0.00,25,7,4,0,17,41.0
1753884872.419974,1,4.76,23.70,2.52,0,1000000,10100,000100000,-32767,0,0,0,0,0,0,-2.01,2.00,-16.41,-0.33,-0.07,-0.06,0.00,0.00,0.00,122.0896987,37.5442123,-0.175,-0.174,-0.181,0.000,0.0000000,0.0000000,0.000,0.00,0.00,0.00,0.000,0.00,25,7,4,0,17,42.0
1753884872.539906,1,4.76,23.70,2.52,0,1000000,10100,000100000,-32767,0,0,0,0,0,0,-2.03,1.97,-16.41,-0.31,-0.20,-0.05,0.00,0.00,0.00,122.0896987,37.5442123,-0.165,-0.172,-0.178,0.000,0.0000000,0.0000000,0.000,0.00,0.00,0.00,0.000,0.00,25,7,4,0,17,42.0
1753884872.663894,1,4.76,23.70,2.51,0,1000000,10100,000100000,-32767,0,0,0,0,0,0,-2.05,1.94,-16.40,-0.29,-0.28,-0.08,0.00,0.00,0.00,122.0896987,37.5442123,-0.170,-0.172,-0.176,0.000,0.0000000,0.0000000,0.000,0.00,0.00,0.00,0.000,0.00,25,7,4,0,17,42.0
1753884872.781771,1,4.76,23.70,2.51,0,1000000,10100,000100000,-32767,0,0,0,0,0,0,-2.09,1.91,-16.39,-0.26,-0.35,-0.11,0.00,0.00,0.00,122.0896987,37.5442123,-0.180,-0.173,-0.176,0.000,0.0000000,0.0000000,0.000,0.00,0.00,0.00,0.000,0.00,25,7,4,0,17,42.0
1753884872.900237,1,4.76,23.70,2.51,0,1000000,10100,000100000,-32767,0,0,0,0,0,0,-2.13,1.89,-16.37,-0.23,-0.39,-0.11,0.00,0.00,0.00,122.0896987,37.5442123,-0.182,-0.175,-0.174,0.000,0.0000000,0.0000000,0.000,0.00,0.00,0.00,0.000,0.00,25,7,4,0,17,42.0
1753884873.019944,1,4.76,23.70,2.51,0,1000000,10100,000100000,-32767,0,0,0,0,0,0,-2.20,1.85,-16.35,-0.21,-0.37,-0.09,0.00,0.00,0.00,122.0896987,37.5442123,-0.180,-0.176,-0.176,0.000,0.0000000,0.0000000,0.000,0.00,0.00,0.00,0.000,0.00,25,7,4,0,17,42.0
1753884873.139883,1,4.76,23.70,2.51,0,1000000,10100,000100000,-32767,0,0,0,0,0,0,-2.24,1.83,-16.34,-0.20,-0.30,-0.06,0.00,0.00,0.00,122.0896987,37.5442123,-0.188,-0.178,-0.180,0.000,0.0000000,0.0000000,0.000,0.00,0.00,0.00,0.000,0.00,25,7,4,0,17,42.0
1753884873.263886,1,4.76,23.70,2.49,0,1000000,10100,000100000,-32767,0,0,0,0,0,0,-2.26,1.81,-16.33,-0.15,-0.28,-0.03,0.00,0.00,0.00,122.0896987,37.5442123,-0.201,-0.183,-0.186,0.000,0.0000000,0.0000000,0.000,0.00,0.00,0.00,0.000,0.00,25,7,4,0,17,42.0
1753884873.380073,1,4.76,23.70,2.46,0,1000000,10100,000100000,-32767,0,0,0,0,0,0,-2.30,1.80,-16.33,-0.07,-0.33,-0.02,0.00,0.00,0.00,122.0896987,37.5442123,-0.184,-0.183,-0.187,0.000,0.0000000,0.0000000,0.000,0.00,0.00,0.00,0.000,0.00,25,7,4,0,17,42.0
1753884873.499821,1,4.76,23.70,2.46,0,1000000,10100,000100000,-32767,0,0,0,0,0,0,-2.34,1.80,-16.32,0.00,-0.40,-0.01,0.00,0.00,0.00,122.0896987,37.5442123,-0.185,-0.184,-0.188,0.000,0.0000000,0.0000000,0.000,0.00,0.00,0.00,0.000,0.00,25,7,4,0,17,43.0
1753884873.619976,1,4.76,23.70,2.46,0,1000000,10100,000100000,-32767,0,0,0,0,0,0,-2.40,1.81,-16.31,0.00,-0.17,-0.07,0.00,0.00,0.00,122.0896987,37.5442123,-0.176,-0.182,-0.187,0.000,0.0000000,0.0000000,0.000,0.00,0.00,0.00,0.000,0.00,25,7,4,0,17,43.0
1753884873.739876,1,4.76,23.70,2.47,0,1000000,10100,000100000,-32767,0,0,0,0,0,0,-2.40,1.80,-16.30,-0.03,0.13,-0.12,0.00,0.00,0.00,122.0896987,37.5442123,-0.165,-0.179,-0.182,0.000,0.0000000,0.0000000,0.000,0.00,0.00,0.00,0.000,0.00,25,7,4,0,17,43.0
1753884873.863804,1,4.76,23.70,2.46,0,1000000,10100,000100000,-32767,0,0,0,0,0,0,-2.36,1.80,-16.28,-0.04,0.37,-0.16,0.00,0.00,0.00,122.0896987,37.5442123,-0.170,-0.177,-0.176,0.000,0.0000000,0.0000000,0.000,0.00,0.00,0.00,0.000,0.00,25,7,4,0,17,43.0
1753884873.980192,1,4.76,23.70,2.45,0,1000000,10100,000100000,-32767,0,0,0,0,0,0,-2.32,1.80,-16.27,-0.04,0.40,-0.15,0.00,0.00,0.00,122.0896987,37.5442123,-0.174,-0.176,-0.174,0.000,0.0000000,0.0000000,0.000,0.00,0.00,0.00,0.000,0.00,25,7,4,0,17,43.0
1753884874.099804,1,4.76,23.70,2.45,0,1000000,10100,000100000,-32767,0,0,0,0,0,0,-2.29,1.80,-16.26,-0.04,0.25,-0.10,0.00,0.00,0.00,122.0896987,37.5442123,-0.164,-0.174,-0.170,0.000,0.0000000,0.0000000,0.000,0.00,0.00,0.00,0.000,0.00,25,7,4,0,17,43.0
1753884874.219954,1,4.76,23.70,2.48,0,1000000,10100,000100000,-32767,0,0,0,0,0,0,-2.27,1.77,-16.25,-0.15,0.08,-0.05,0.00,0.00,0.00,122.0896987,37.5442123,-0.146,-0.168,-0.164,0.000,0.0000000,0.0000000,0.000,0.00,0.00,0.00,0.000,0.00,25,7,4,0,17,43.0
1753884874.339852,1,4.76,23.70,2.48,0,1000000,10100,000100000,-32767,0,0,0,0,0,0,-2.25,1.75,-16.24,-0.22,0.19,-0.09,0.00,0.00,0.00,122.0896987,37.5442123,-0.162,-0.167,-0.163,0.000,0.0000000,0.0000000,0.000,0.00,0.00,0.00,0.000,0.00,25,7,4,0,17,43.0
1753884874.463837,1,4.76,23.70,2.44,0,1000000,10100,000100000,-32767,0,0,0,0,0,0,-2.23,1.73,-16.23,-0.23,0.29,-0.15,0.00,0.00,0.00,122.0896987,37.5442123,-0.168,-0.167,-0.163,0.000,0.0000000,0.0000000,0.000,0.00,0.00,0.00,0.000,0.00,25,7,4,0,17,44.0
1753884874.579960,1,4.76,23.70,2.43,0,1000000,10100,000100000,-32767,0,0,0,0,0,0,-2.20,1.71,-16.21,-0.16,0.21,-0.22,0.00,0.00,0.00,122.0896987,37.5442123,-0.172,-0.168,-0.163,0.000,0.0000000,0.0000000,0.000,0.00,0.00,0.00,0.000,0.00,25,7,4,0,17,44.0
1753884874.699812,1,4.76,23.70,2.43,0,1000000,10100,000100000,-32767,0,0,0,0,0,0,-2.20,1.71,-16.18,-0.06,-0.06,-0.24,0.00,0.00,0.00,122.0896987,37.5442123,-0.163,-0.167,-0.162,0.000,0.0000000,0.0000000,0.000,0.00,0.00,0.00,0.000,0.00,25,7,4,0,17,44.0
1753884874.819941,1,4.76,23.70,2.44,0,1000000,10100,000100000,-32767,0,0,0,0,0,0,-2.27,1.71,-16.13,0.02,-0.48,-0.21,0.00,0.00,0.00,122.0896987,37.5442123,-0.177,-0.169,-0.169,0.000,0.0000000,0.0000000,0.000,0.00,0.00,0.00,0.000,0.00,25,7,4,0,17,44.0
1753884874.939766,1,4.76,23.70,2.43,0,1000000,10100,000100000,-32767,0,0,0,0,0,0,-2.32,1.72,-16.11,0.01,-0.48,-0.18,0.00,0.00,0.00,122.0896987,37.5442123,-0.186,-0.173,-0.173,0.000,0.0000000,0.0000000,0.000,0.00,0.00,0.00,0.000,0.00,25,7,4,0,17,44.0
1753884875.064034,1,4.76,23.70,2.43,0,1000000,10100,000100000,-32767,0,0,0,0,0,0,-2.36,1.72,-16.08,0.00,-0.37,-0.20,0.00,0.00,0.00,122.0896987,37.5442123,-0.192,-0.177,-0.178,0.000,0.0000000,0.0000000,0.000,0.00,0.00,0.00,0.000,0.00,25,7,4,0,17,44.0
1753884875.180029,1,4.76,23.70,2.44,0,1000000,10100,000100000,-32767,0,0,0,0,0,0,-2.38,1.72,-16.06,-0.03,-0.23,-0.22,0.00,0.00,0.00,122.0896987,37.5442123,-0.191,-0.179,-0.182,0.000,0.0000000,0.0000000,0.000,0.00,0.00,0.00,0.000,0.00,25,7,4,0,17,44.0
1753884875.299759,1,4.76,23.70,2.44,0,1000000,10100,000100000,-32767,0,0,0,0,0,0,-2.40,1.71,-16.04,-0.04,-0.07,-0.25,0.00,0.00,0.00,122.0896987,37.5442123,-0.190,-0.181,-0.187,0.000,0.0000000,0.0000000,0.000,0.00,0.00,0.00,0.000,0.00,25,7,4,0,17,44.0
1753884875.419941,1,4.76,23.70,2.45,0,1000000,10100,000100000,-32767,0,0,0,0,0,0,-2.37,1.72,-15.99,0.02,0.21,-0.27,0.00,0.00,0.00,122.0896987,37.5442123,-0.188,-0.183,-0.189,0.000,0.0000000,0.0000000,0.000,0.00,0.00,0.00,0.000,0.00,25,7,4,0,17,45.0
1753884875.539944,1,4.76,23.70,2.44,0,1000000,10100,000100000,-32767,0,0,0,0,0,0,-2.34,1.73,-15.96,0.11,0.30,-0.25,0.00,0.00,0.00,122.0896987,37.5442123,-0.188,-0.184,-0.190,0.000,0.0000000,0.0000000,0.000,0.00,0.00,0.00,0.000,0.00,25,7,4,0,17,45.0
1753884875.663929,1,4.76,23.70,2.43,0,1000000,10100,000100000,-32767,0,0,0,0,0,0,-2.31,1.75,-15.94,0.19,0.28,-0.21,0.00,0.00,0.00,122.0896987,37.5442123,-0.194,-0.186,-0.190,0.000,0.0000000,0.0000000,0.000,0.00,0.00,0.00,0.000,0.00,25,7,4,0,17,45.0
1753884875.781753,1,4.76,23.70,2.17,0,1000000,10100,000100000,-32767,0,0,0,0,0,0,-2.29,1.77,-15.92,0.23,0.17,-0.17,0.00,0.00,0.00,122.0896987,37.5442123,-0.192,-0.187,-0.190,0.000,0.0000000,0.0000000,0.000,0.00,0.00,0.00,0.000,0.00,25,7,4,0,17,45.0
1753884875.900115,1,4.76,23.70,2.14,0,1000000,10100,000100000,-32767,0,0,0,0,0,0,-2.27,1.80,-15.91,0.22,0.05,-0.14,0.00,0.00,0.00,122.0896987,37.5442123,-0.190,-0.188,-0.190,0.000,0.0000000,0.0000000,0.000,0.00,0.00,0.00,0.000,0.00,25,7,4,0,17,45.0
1753884876.019915,1,4.76,23.70,2.15,0,1000000,10100,000100000,-32767,0,0,0,0,0,0,-2.25,1.84,-15.88,0.17,0.23,-0.21,0.00,0.00,0.00,122.0896987,37.5442123,-0.176,-0.185,-0.188,0.000,0.0000000,0.0000000,0.000,0.00,0.00,0.00,0.000,0.00,25,7,4,0,17,45.0
1753884876.139789,1,4.76,23.70,2.15,0,1000000,10100,000100000,-32767,0,0,0,0,0,0,-2.21,1.86,-15.85,0.16,0.43,-0.26,0.00,0.00,0.00,122.0896987,37.5442123,-0.178,-0.184,-0.186,0.000,0.0000000,0.0000000,0.000,0.00,0.00,0.00,0.000,0.00,25,7,4,0,17,45.0
1753884876.263820,1,4.86,23.70,2.15,0,1000000,10100,000100000,-32767,0,0,0,0,0,0,-2.16,1.88,-15.83,0.20,0.49,-0.30,0.00,0.00,0.00,122.0896987,37.5442123,-0.187,-0.184,-0.185,0.000,0.0000000,0.0000000,0.000,0.00,0.00,0.00,0.000,0.00,25,7,4,0,17,45.0
1753884876.381719,1,4.86,23.70,2.15,0,1000000,10100,000100000,-32767,0,0,0,0,0,0,-2.12,1.91,-15.80,0.26,0.31,-0.28,0.00,0.00,0.00,122.0896987,37.5442123,-0.186,-0.185,-0.184,0.000,0.0000000,0.0000000,0.000,0.00,0.00,0.00,0.000,0.00,25,7,4,0,17,45.0
1753884876.499779,1,4.86,23.70,2.15,0,1000000,10100,000100000,-32767,0,0,0,0,0,0,-2.12,1.94,-15.77,0.31,-0.02,-0.24,0.00,0.00,0.00,122.0896987,37.5442123,-0.193,-0.186,-0.184,0.000,0.0000000,0.0000000,0.000,0.00,0.00,0.00,0.000,0.00,25,7,4,0,17,46.0
1753884876.619925,1,4.86,23.70,2.14,0,1000000,10100,000100000,-32767,0,0,0,0,0,0,-2.18,2.01,-15.74,0.36,-0.33,-0.12,0.00,0.00,0.00,122.0896987,37.5442123,-0.175,-0.184,-0.184,0.000,0.0000000,0.0000000,0.000,0.00,0.00,0.00,0.000,0.00,25,7,4,0,17,46.0
1753884876.755789,1,4.86,23.70,2.14,0,1000000,10100,000100000,-32767,0,0,0,0,0,0,-2.19,2.05,-15.73,0.37,-0.14,-0.17,0.00,0.00,0.00,122.0896987,37.5442123,-0.165,-0.180,-0.181,0.000,0.0000000,0.0000000,0.000,0.00,0.00,0.00,0.000,0.00,25,7,4,0,17,46.0
1753884876.863817,1,4.86,23.70,2.16,0,1000000,10100,000100000,-32767,0,0,0,0,0,0,-2.19,2.09,-15.70,0.38,0.08,-0.27,0.00,0.00,0.00,122.0896987,37.5442123,-0.158,-0.176,-0.175,0.000,0.0000000,0.0000000,0.000,0.00,0.00,0.00,0.000,0.00,25,7,4,0,17,46.0
1753884876.981717,1,4.86,23.70,2.14,0,1000000,10100,000100000,-32767,0,0,0,0,0,0,-2.16,2.13,-15.67,0.38,0.19,-0.42,0.00,0.00,0.00,122.0896987,37.5442123,-0.152,-0.171,-0.169,0.000,0.0000000,0.0000000,0.000,0.00,0.00,0.00,0.000,0.00,25,7,4,0,17,46.0
1753884877.099758,1,4.86,23.70,2.14,0,1000000,10100,000100000,-32767,0,0,0,0,0,0,-2.14,2.18,-15.62,0.37,0.20,-0.53,0.00,0.00,0.00,122.0896987,37.5442123,-0.160,-0.169,-0.162,0.000,0.0000000,0.0000000,0.000,0.00,0.00,0.00,0.000,0.00,25,7,4,0,17,46.0
1753884877.219936,1,4.86,23.70,2.14,0,1000000,10100,000100000,-32767,0,0,0,0,0,0,-2.11,2.25,-15.51,0.30,0.07,-0.54,0.00,0.00,0.00,122.0896987,37.5442123,-0.163,-0.168,-0.159,0.000,0.0000000,0.0000000,0.000,0.00,0.00,0.00,0.000,0.00,25,7,4,0,17,46.0
1753884877.339861,1,4.86,23.70,2.14,0,1000000,10100,000100000,-32767,0,0,0,0,0,0,-2.11,2.28,-15.46,0.23,-0.09,-0.48,0.00,0.00,0.00,122.0896987,37.5442123,-0.169,-0.168,-0.160,0.000,0.0000000,0.0000000,0.000,0.00,0.00,0.00,0.000,0.00,25,7,4,0,17,46.0
1753884877.463822,1,4.86,23.70,2.15,0,1000000,10100,000100000,-32767,0,0,0,0,0,0,-2.13,2.30,-15.41,0.15,-0.32,-0.41,0.00,0.00,0.00,122.0896987,37.5442123,-0.160,-0.166,-0.161,0.000,0.0000000,0.0000000,0.000,0.00,0.00,0.00,0.000,0.00,25,7,4,0,17,47.0
1753884877.581718,1,4.86,23.70,2.15,0,1000000,10100,000100000,-32767,0,0,0,0,0,0,-2.18,2.31,-15.37,0.10,-0.53,-0.38,0.00,0.00,0.00,122.0896987,37.5442123,-0.154,-0.164,-0.161,0.000,0.0000000,0.0000000,0.000,0.00,0.00,0.00,0.000,0.00,25,7,4,0,17,47.0
1753884877.699756,1,4.86,23.70,2.15,0,1000000,10100,000100000,-32767,0,0,0,0,0,0,-2.24,2.33,-15.33,0.08,-0.61,-0.40,0.00,0.00,0.00,122.0896987,37.5442123,-0.149,-0.161,-0.159,0.000,0.0000000,0.0000000,0.000,0.00,0.00,0.00,0.000,0.00,25,7,4,0,17,47.0
1753884877.819791,1,4.86,23.70,2.17,0,1000000,10100,000100000,-32767,0,0,0,0,0,0,-2.32,2.36,-15.24,0.11,-0.31,-0.48,0.00,0.00,0.00,122.0896987,37.5442123,-0.142,-0.157,-0.155,0.000,0.0000000,0.0000000,0.000,0.00,0.00,0.00,0.000,0.00,25,7,4,0,17,47.0
1753884877.939794,1,4.86,23.70,2.17,0,1000000,10100,000100000,-32767,0,0,0,0,0,0,-2.34,2.37,-15.19,0.11,-0.16,-0.49,0.00,0.00,0.00,122.0896987,37.5442123,-0.140,-0.154,-0.149,0.000,0.0000000,0.0000000,0.000,0.00,0.00,0.00,0.000,0.00,25,7,4,0,17,47.0
1753884878.063977,1,4.86,23.70,2.17,0,1000000,10100,000100000,-32767,0,0,0,0,0,0,-2.35,2.38,-15.14,0.08,-0.11,-0.48,0.00,0.00,0.00,122.0896987,37.5442123,-0.151,-0.153,-0.147,0.000,0.0000000,0.0000000,0.000,0.00,0.00,0.00,0.000,0.00,25,7,4,0,17,47.0
1753884878.180001,1,4.86,23.70,2.18,0,1000000,10100,000100000,-32767,0,0,0,0,0,0,-2.36,2.40,-15.09,0.04,-0.15,-0.45,0.00,0.00,0.00,122.0896987,37.5442123,-0.166,-0.156,-0.149,0.000,0.0000000,0.0000000,0.000,0.00,0.00,0.00,0.000,0.00,25,7,4,0,17,47.0
1753884878.299737,1,4.86,23.70,2.18,0,1000000,10100,000100000,-32767,0,0,0,0,0,0,-2.37,2.40,-15.05,0.00,-0.17,-0.42,0.00,0.00,0.00,122.0896987,37.5442123,-0.171,-0.159,-0.154,0.000,0.0000000,0.0000000,0.000,0.00,0.00,0.00,0.000,0.00,25,7,4,0,17,47.0
1753884878.419901,1,4.86,23.70,2.18,0,1000000,10100,000100000,-32767,0,0,0,0,0,0,-2.38,2.40,-14.96,-0.01,0.00,-0.39,0.00,0.00,0.00,122.0896987,37.5442123,-0.182,-0.163,-0.162,0.000,0.0000000,0.0000000,0.000,0.00,0.00,0.00,0.000,0.00,25,7,4,0,17,48.0
1753884878.539831,1,4.86,23.70,2.18,0,1000000,10100,000100000,-32767,0,0,0,0,0,0,-2.37,2.41,-14.93,0.00,0.12,-0.39,0.00,0.00,0.00,122.0896987,37.5442123,-0.183,-0.167,-0.170,0.000,0.0000000,0.0000000,0.000,0.00,0.00,0.00,0.000,0.00,25,7,4,0,17,48.0
1753884878.663737,1,4.86,23.70,2.17,0,1000000,10100,000100000,-32767,0,0,0,0,0,0,-2.35,2.41,-14.89,0.06,0.20,-0.39,0.00,0.00,0.00,122.0896987,37.5442123,-0.171,-0.168,-0.174,0.000,0.0000000,0.0000000,0.000,0.00,0.00,0.00,0.000,0.00,25,7,4,0,17,48.0
1753884878.781671,1,4.86,23.70,2.14,0,1000000,10100,000100000,-32767,0,0,0,0,0,0,-2.32,2.43,-14.85,0.13,0.21,-0.40,0.00,0.00,0.00,122.0896987,37.5442123,-0.175,-0.169,-0.176,0.000,0.0000000,0.0000000,0.000,0.00,0.00,0.00,0.000,0.00,25,7,4,0,17,48.0
1753884878.900205,1,4.86,23.70,2.14,0,1000000,10100,000100000,-32767,0,0,0,0,0,0,-2.30,2.45,-14.80,0.22,0.21,-0.44,0.00,0.00,0.00,122.0896987,37.5442123,-0.177,-0.171,-0.178,0.000,0.0000000,0.0000000,0.000,0.00,0.00,0.00,0.000,0.00,25,7,4,0,17,48.0
1753884879.019917,1,4.86,23.70,2.14,0,1000000,10100,000100000,-32767,0,0,0,0,0,0,-2.24,2.52,-14.71,0.30,0.26,-0.53,0.00,0.00,0.00,122.0896987,37.5442123,-0.171,-0.171,-0.175,0.000,0.0000000,0.0000000,0.000,0.00,0.00,0.00,0.000,0.00,25,7,4,0,17,48.0
1753884879.139796,1,4.86,23.70,2.14,0,1000000,10100,000100000,-32767,0,0,0,0,0,0,-2.21,2.55,-14.66,0.27,0.26,-0.51,0.00,0.00,0.00,122.0896987,37.5442123,-0.175,-0.172,-0.174,0.000,0.0000000,0.0000000,0.000,0.00,0.00,0.00,0.000,0.00,25,7,4,0,17,48.0
1753884879.263833,1,4.86,23.70,2.17,0,1000000,10100,000100000,-32767,0,0,0,0,0,0,-2.19,2.58,-14.61,0.22,0.16,-0.43,0.00,0.00,0.00,122.0896987,37.5442123,-0.178,-0.173,-0.175,0.000,0.0000000,0.0000000,0.000,0.00,0.00,0.00,0.000,0.00,25,7,4,0,17,48.0
1753884879.381721,1,4.86,23.70,2.14,0,1000000,10100,000100000,-32767,0,0,0,0,0,0,-2.19,2.60,-14.58,0.18,-0.04,-0.33,0.00,0.00,0.00,122.0896987,37.5442123,-0.167,-0.172,-0.174,0.000,0.0000000,0.0000000,0.000,0.00,0.00,0.00,0.000,0.00,25,7,4,0,17,48.0
1753884879.499747,1,4.86,23.70,2.14,0,1000000,10100,000100000,-32767,0,0,0,0,0,0,-2.20,2.62,-14.55,0.18,-0.26,-0.26,0.00,0.00,0.00,122.0896987,37.5442123,-0.159,-0.169,-0.170,0.000,0.0000000,0.0000000,0.000,0.00,0.00,0.00,0.000,0.00,25,7,4,0,17,49.0
1753884879.619911,1,4.86,23.70,2.15,0,1000000,10100,000100000,-32767,0,0,0,0,0,0,-2.26,2.68,-14.49,0.30,-0.26,-0.34,0.00,0.00,0.00,122.0896987,37.5442123,-0.161,-0.167,-0.168,0.000,0.0000000,0.0000000,0.000,0.00,0.00,0.00,0.000,0.00,25,7,4,0,17,49.0
1753884879.739830,1,4.86,23.70,2.15,0,1000000,10100,000100000,-32767,0,0,0,0,0,0,-2.27,2.71,-14.45,0.33,-0.06,-0.44,0.00,0.00,0.00,122.0896987,37.5442123,-0.167,-0.167,-0.166,0.000,0.0000000,0.0000000,0.000,0.00,0.00,0.00,0.000,0.00,25,7,4,0,17,49.0
1753884879.863862,1,4.86,23.70,2.16,0,1000000,10100,000100000,-32767,0,0,0,0,0,0,-2.26,2.75,-14.40,0.31,0.07,-0.49,0.00,0.00,0.00,122.0896987,37.5442123,-0.159,-0.166,-0.162,0.000,0.0000000,0.0000000,0.000,0.00,0.00,0.00,0.000,0.00,25,7,4,0,17,49.0
1753884879.981736,1,4.86,23.70,2.19,0,1000000,10100,000100000,-32767,0,0,0,0,0,0,-2.25,2.78,-14.35,0.24,0.04,-0.48,0.00,0.00,0.00,122.0896987,37.5442123,-0.165,-0.165,-0.162,0.000,0.0000000,0.0000000,0.000,0.00,0.00,0.00,0.000,0.00,25,7,4,0,17,49.0
1753884880.099701,1,4.86,23.70,2.19,0,1000000,10100,000100000,-32767,0,0,0,0,0,0,-2.25,2.80,-14.31,0.16,-0.11,-0.40,0.00,0.00,0.00,122.0896987,37.5442123,-0.170,-0.166,-0.164,0.000,0.0000000,0.0000000,0.000,0.00,0.00,0.00,0.000,0.00,25,7,4,0,17,49.0
1753884880.219890,1,4.86,23.70,2.19,0,1000000,10100,000100000,-32767,0,0,0,0,0,0,-2.30,2.83,-14.25,0.12,-0.30,-0.25,0.00,0.00,0.00,122.0896987,37.5442123,-0.177,-0.168,-0.167,0.000,0.0000000,0.0000000,0.000,0.00,0.00,0.00,0.000,0.00,25,7,4,0,17,49.0
1753884880.339787,1,4.86,23.70,2.19,0,1000000,10100,000100000,-32767,0,0,0,0,0,0,-2.33,2.85,-14.22,0.15,-0.23,-0.26,0.00,0.00,0.00,122.0896987,37.5442123,-0.166,-0.168,-0.167,0.000,0.0000000,0.0000000,0.000,0.00,0.00,0.00,0.000,0.00,25,7,4,0,17,49.0
1753884880.463761,1,4.86,23.70,2.19,0,1000000,10100,000100000,-32767,0,0,0,0,0,0,-2.34,2.87,-14.19,0.20,-0.15,-0.31,0.00,0.00,0.00,122.0896987,37.5442123,-0.171,-0.169,-0.170,0.000,0.0000000,0.0000000,0.000,0.00,0.00,0.00,0.000,0.00,25,7,4,0,17,50.0
1753884880.581640,1,4.86,23.70,2.15,0,1000000,10100,000100000,-32767,0,0,0,0,0,0,-2.35,2.89,-14.16,0.22,-0.13,-0.37,0.00,0.00,0.00,122.0896987,37.5442123,-0.181,-0.171,-0.173,0.000,0.0000000,0.0000000,0.000,0.00,0.00,0.00,0.000,0.00,25,7,4,0,17,50.0
1753884880.699722,1,4.86,23.70,2.15,0,1000000,10100,000100000,-32767,0,0,0,0,0,0,-2.36,2.92,-14.12,0.21,-0.15,-0.41,0.00,0.00,0.00,122.0896987,37.5442123,-0.170,-0.171,-0.173,0.000,0.0000000,0.0000000,0.000,0.00,0.00,0.00,0.000,0.00,25,7,4,0,17,50.0
1753884880.819858,1,4.86,23.70,2.15,0,1000000,10100,000100000,-32767,0,0,0,0,0,0,-2.37,2.96,-14.04,0.17,0.00,-0.41,0.00,0.00,0.00,122.0896987,37.5442123,-0.164,-0.169,-0.170,0.000,0.0000000,0.0000000,0.000,0.00,0.00,0.00,0.000,0.00,25,7,4,0,17,50.0
1753884880.939762,1,4.86,23.70,2.15,0,1000000,10100,000100000,-32767,0,0,0,0,0,0,-2.36,2.98,-14.00,0.14,0.17,-0.38,0.00,0.00,0.00,122.0896987,37.5442123,-0.169,-0.169,-0.171,0.000,0.0000000,0.0000000,0.000,0.00,0.00,0.00,0.000,0.00,25,7,4,0,17,50.0
1753884881.064586,1,4.86,23.70,2.15,0,1000000,10100,000100000,-32767,0,0,0,0,0,0,-2.33,2.99,-13.96,0.09,0.31,-0.38,0.00,0.00,0.00,122.0896987,37.5442123,-0.160,-0.168,-0.169,0.000,0.0000000,0.0000000,0.000,0.00,0.00,0.00,0.000,0.00,25,7,4,0,17,50.0
1753884881.181626,1,4.86,23.70,2.15,0,1000000,10100,000100000,-32767,0,0,0,0,0,0,-2.29,3.01,-13.92,0.03,0.35,-0.40,0.00,0.00,0.00,122.0896987,37.5442123,-0.154,-0.165,-0.163,0.000,0.0000000,0.0000000,0.000,0.00,0.00,0.00,0.000,0.00,25,7,4,0,17,50.0
1753884881.299699,1,4.86,23.70,2.15,0,1000000,10100,000100000,-32767,0,0,0,0,0,0,-2.25,3.01,-13.88,-0.04,0.32,-0.45,0.00,0.00,0.00,122.0896987,37.5442123,-0.149,-0.162,-0.159,0.000,0.0000000,0.0000000,0.000,0.00,0.00,0.00,0.000,0.00,25,7,4,0,17,50.0
1753884881.419861,1,4.86,23.70,2.15,0,1000000,10100,000100000,-32767,0,0,0,0,0,0,-2.18,2.99,-13.77,-0.12,0.35,-0.57,0.00,0.00,0.00,122.0896987,37.5442123,-0.136,-0.156,-0.154,0.000,0.0000000,0.0000000,0.000,0.00,0.00,0.00,0.000,0.00,25,7,4,0,17,51.0
1753884881.539803,1,4.86,23.70,2.15,0,1000000,10100,000100000,-32767,0,0,0,0,0,0,-2.14,2.99,-13.72,-0.09,0.36,-0.59,0.00,0.00,0.00,122.0896987,37.5442123,-0.135,-0.152,-0.147,0.000,0.0000000,0.0000000,0.000,0.00,0.00,0.00,0.000,0.00,25,7,4,0,17,51.0
1753884881.663736,1,4.86,23.70,2.16,0,1000000,10100,000100000,-32767,0,0,0,0,0,0,-2.10,2.99,-13.66,-0.04,0.25,-0.56,0.00,0.00,0.00,122.0896987,37.5442123,-0.160,-0.154,-0.147,0.000,0.0000000,0.0000000,0.000,0.00,0.00,0.00,0.000,0.00,25,7,4,0,17,51.0
1753884881.779052,1,5.06,23.70,2.16,0,1000000,10100,000100000,-32767,0,0,0,0,0,0,-2.09,2.99,-13.61,0.02,-0.01,-0.51,0.00,0.00,0.00,122.0896987,37.5442123,-0.166,-0.156,-0.149,0.000,0.0000000,0.0000000,0.000,0.00,0.00,0.00,0.000,0.00,25,7,4,0,17,51.0
1753884881.900131,1,4.86,23.70,2.16,0,1000000,10100,000100000,-32767,0,0,0,0,0,0,-2.12,3.00,-13.56,0.05,-0.34,-0.47,0.00,0.00,0.00,122.0896987,37.5442123,-0.171,-0.159,-0.154,0.000,0.0000000,0.0000000,0.000,0.00,0.00,0.00,0.000,0.00,25,7,4,0,17,51.0
1753884882.019880,1,4.86,23.70,2.15,0,1000000,10100,000100000,-32767,0,0,0,0,0,0,-2.21,3.02,-13.46,0.02,-0.56,-0.46,0.00,0.00,0.00,122.0896987,37.5442123,-0.177,-0.163,-0.162,0.000,0.0000000,0.0000000,0.000,0.00,0.00,0.00,0.000,0.00,25,7,4,0,17,51.0
1753884882.139627,1,4.86,23.70,2.15,0,1000000,10100,000100000,-32767,0,0,0,0,0,0,-2.26,3.02,-13.41,-0.02,-0.39,-0.50,0.00,0.00,0.00,122.0896987,37.5442123,-0.167,-0.164,-0.168,0.000,0.0000000,0.0000000,0.000,0.00,0.00,0.00,0.000,0.00,25,7,4,0,17,51.0
1753884882.263764,1,4.86,23.70,2.15,0,1000000,10100,000100000,-32767,0,0,0,0,0,0,-2.27,3.02,-13.35,-0.09,-0.19,-0.53,0.00,0.00,0.00,122.0896987,37.5442123,-0.178,-0.166,-0.172,0.000,0.0000000,0.0000000,0.000,0.00,0.00,0.00,0.000,0.00,25,7,4,0,17,51.0
1753884882.380036,1,4.86,23.70,2.14,0,1000000,10100,000100000,-32767,0,0,0,0,0,0,-2.29,3.01,-13.30,-0.12,-0.14,-0.53,0.00,0.00,0.00,122.0896987,37.5442123,-0.180,-0.169,-0.175,0.000,0.0000000,0.0000000,0.000,0.00,0.00,0.00,0.000,0.00,25,7,4,0,17,51.0
1753884882.499681,1,4.86,23.70,2.14,0,1000000,10100,000100000,-32767,0,0,0,0,0,0,-2.30,3.01,-13.25,-0.12,-0.24,-0.50,0.00,0.00,0.00,122.0896987,37.5442123,-0.181,-0.172,-0.177,0.000,0.0000000,0.0000000,0.000,0.00,0.00,0.00,0.000,0.00,25,7,4,0,17,52.0
1753884882.619840,1,4.86,23.70,2.15,0,1000000,10100,000100000,-32767,0,0,0,0,0,0,-2.37,2.99,-13.15,-0.05,-0.45,-0.42,0.00,0.00,0.00,122.0896987,37.5442123,-0.156,-0.168,-0.172,0.000,0.0000000,0.0000000,0.000,0.00,0.00,0.00,0.000,0.00,25,7,4,0,17,52.0
1753884882.739621,1,4.86,23.70,2.15,0,1000000,10100,000100000,-32767,0,0,0,0,0,0,-2.41,2.99,-13.11,-0.04,-0.36,-0.42,0.00,0.00,0.00,122.0896987,37.5442123,-0.163,-0.167,-0.172,0.000,0.0000000,0.0000000,0.000,0.00,0.00,0.00,0.000,0.00,25,7,4,0,17,52.0
1753884882.863772,1,4.86,23.70,2.15,0,1000000,10100,000100000,-32767,0,0,0,0,0,0,-2.43,2.99,-13.06,-0.04,-0.20,-0.42,0.00,0.00,0.00,122.0896987,37.5442123,-0.150,-0.164,-0.166,0.000,0.0000000,0.0000000,0.000,0.00,0.00,0.00,0.000,0.00,25,7,4,0,17,52.0
1753884882.981610,1,4.86,23.70,2.15,0,1000000,10100,000100000,-32767,0,0,0,0,0,0,-2.43,2.99,-13.02,-0.04,-0.05,-0.43,0.00,0.00,0.00,122.0896987,37.5442123,-0.146,-0.160,-0.159,0.000,0.0000000,0.0000000,0.000,0.00,0.00,0.00,0.000,0.00,25,7,4,0,17,52.0
1753884883.099696,1,4.86,23.70,2.15,0,1000000,10100,000100000,-32767,0,0,0,0,0,0,-2.43,2.99,-12.98,-0.04,0.04,-0.45,0.00,0.00,0.00,122.0896987,37.5442123,-0.162,-0.160,-0.155,0.000,0.0000000,0.0000000,0.000,0.00,0.00,0.00,0.000,0.00,25,7,4,0,17,52.0
1753884883.219815,1,4.86,23.70,2.18,0,1000000,10100,000100000,-32767,0,0,0,0,0,0,-2.40,2.99,-12.88,-0.07,0.19,-0.50,0.00,0.00,0.00,122.0896987,37.5442123,-0.150,-0.158,-0.154,0.000,0.0000000,0.0000000,0.000,0.00,0.00,0.00,0.000,0.00,25,7,4,0,17,52.0
1753884883.339728,1,4.86,23.70,2.18,0,1000000,10100,000100000,-32767,0,0,0,0,0,0,-2.36,2.98,-12.83,-0.12,0.28,-0.53,0.00,0.00,0.00,122.0896987,37.5442123,-0.158,-0.158,-0.153,0.000,0.0000000,0.0000000,0.000,0.00,0.00,0.00,0.000,0.00,25,7,4,0,17,52.0
1753884883.463778,1,4.86,23.70,2.15,0,1000000,10100,000100000,-32767,0,0,0,0,0,0,-2.32,2.97,-12.77,-0.16,0.31,-0.53,0.00,0.00,0.00,122.0896987,37.5442123,-0.152,-0.157,-0.153,0.000,0.0000000,0.0000000,0.000,0.00,0.00,0.00,0.000,0.00,25,7,4,0,17,53.0
1753884883.581657,1,4.86,23.70,2.15,0,1000000,10100,000100000,-32767,0,0,0,0,0,0,-2.29,2.96,-12.72,-0.18,0.27,-0.49,0.00,0.00,0.00,122.0896987,37.5442123,-0.167,-0.159,-0.158,0.000,0.0000000,0.0000000,0.000,0.00,0.00,0.00,0.000,0.00,25,7,4,0,17,53.0
1753884883.699707,1,4.86,23.70,2.15,0,1000000,10100,000100000,-32767,0,0,0,0,0,0,-2.27,2.94,-12.68,-0.16,0.15,-0.43,0.00,0.00,0.00,122.0896987,37.5442123,-0.171,-0.162,-0.160,0.000,0.0000000,0.0000000,0.000,0.00,0.00,0.00,0.000,0.00,25,7,4,0,17,53.0
1753884883.819784,1,4.86,23.70,2.15,0,1000000,10100,000100000,-32767,0,0,0,0,0,0,-2.26,2.93,-12.60,-0.04,-0.08,-0.34,0.00,0.00,0.00,122.0896987,37.5442123,-0.168,-0.163,-0.163,0.000,0.0000000,0.0000000,0.000,0.00,0.00,0.00,0.000,0.00,25,7,4,0,17,53.0
1753884883.939725,1,4.86,23.70,2.15,0,1000000,10100,000100000,-32767,0,0,0,0,0,0,-2.27,2.93,-12.56,-0.02,-0.15,-0.37,0.00,0.00,0.00,122.0896987,37.5442123,-0.172,-0.165,-0.166,0.000,0.0000000,0.0000000,0.000,0.00,0.00,0.00,0.000,0.00,25,7,4,0,17,53.0
1753884884.063834,1,4.86,23.70,2.15,0,1000000,10100,000100000,-32767,0,0,0,0,0,0,-2.29,2.93,-12.52,-0.04,-0.16,-0.44,0.00,0.00,0.00,122.0896987,37.5442123,-0.163,-0.164,-0.168,0.000,0.0000000,0.0000000,0.000,0.00,0.00,0.00,0.000,0.00,25,7,4,0,17,53.0
1753884884.181596,1,4.86,23.70,2.16,0,1000000,10100,000100000,-32767,0,0,0,0,0,0,-2.30,2.92,-12.47,-0.10,-0.13,-0.50,0.00,0.00,0.00,122.0896987,37.5442123,-0.156,-0.163,-0.166,0.000,0.0000000,0.0000000,0.000,0.00,0.00,0.00,0.000,0.00,25,7,4,0,17,53.0
1753884884.299632,1,4.86,23.70,2.16,0,1000000,10100,000100000,-32767,0,0,0,0,0,0,-2.31,2.91,-12.42,-0.19,-0.09,-0.52,0.00,0.00,0.00,122.0896987,37.5442123,-0.169,-0.164,-0.166,0.000,0.0000000,0.0000000,0.000,0.00,0.00,0.00,0.000,0.00,25,7,4,0,17,53.0
1753884884.419809,1,4.86,23.70,2.15,0,1000000,10100,000100000,-32767,0,0,0,0,0,0,-2.32,2.87,-12.32,-0.29,-0.11,-0.43,0.00,0.00,0.00,122.0896987,37.5442123,-0.176,-0.166,-0.167,0.000,0.0000000,0.0000000,0.000,0.00,0.00,0.00,0.000,0.00,25,7,4,0,17,54.0
1753884884.539742,1,4.86,23.70,2.15,0,1000000,10100,000100000,-32767,0,0,0,0,0,0,-2.33,2.84,-12.28,-0.26,-0.17,-0.39,0.00,0.00,0.00,122.0896987,37.5442123,-0.160,-0.165,-0.165,0.000,0.0000000,0.0000000,0.000,0.00,0.00,0.00,0.000,0.00,25,7,4,0,17,54.0
1753884884.663739,1,4.86,23.70,2.15,0,1000000,10100,000100000,-32767,0,0,0,0,0,0,-2.35,2.82,-12.24,-0.17,-0.23,-0.35,0.00,0.00,0.00,122.0896987,37.5442123,-0.166,-0.165,-0.165,0.000,0.0000000,0.0000000,0.000,0.00,0.00,0.00,0.000,0.00,25,7,4,0,17,54.0
1753884884.781580,1,4.86,23.70,2.17,0,1000000,10100,000100000,-32767,0,0,0,0,0,0,-2.37,2.82,-12.20,-0.07,-0.24,-0.34,0.00,0.00,0.00,122.0896987,37.5442123,-0.171,-0.166,-0.168,0.000,0.0000000,0.0000000,0.000,0.00,0.00,0.00,0.000,0.00,25,7,4,0,17,54.0
1753884884.900032,1,4.86,23.70,2.17,0,1000000,10100,000100000,-32767,0,0,0,0,0,0,-2.39,2.82,-12.17,-0.02,-0.20,-0.35,0.00,0.00,0.00,122.0896987,37.5442123,-0.162,-0.165,-0.167,0.000,0.0000000,0.0000000,0.000,0.00,0.00,0.00,0.000,0.00,25,7,4,0,17,54.0
1753884885.019723,1,4.86,23.70,2.17,0,1000000,10100,000100000,-32767,0,0,0,0,0,0,-2.41,2.81,-12.09,-0.15,-0.09,-0.43,0.00,0.00,0.00,122.0896987,37.5442123,-0.159,-0.164,-0.163,0.000,0.0000000,0.0000000,0.000,0.00,0.00,0.00,0.000,0.00,25,7,4,0,17,54.0
1753884885.139704,1,4.86,23.70,2.17,0,1000000,10100,000100000,-32767,0,0,0,0,0,0,-2.41,2.79,-12.04,-0.27,-0.06,-0.48,0.00,0.00,0.00,122.0896987,37.5442123,-0.166,-0.164,-0.165,0.000,0.0000000,0.0000000,0.000,0.00,0.00,0.00,0.000,0.00,25,7,4,0,17,54.0
1753884885.263736,1,4.86,23.70,2.19,0,1000000,10100,000100000,-32767,0,0,0,0,0,0,-2.41,2.76,-11.99,-0.38,-0.05,-0.48,0.00,0.00,0.00,122.0896987,37.5442123,-0.158,-0.163,-0.163,0.000,0.0000000,0.0000000,0.000,0.00,0.00,0.00,0.000,0.00,25,7,4,0,17,54.0
1753884885.381605,1,4.86,23.70,2.18,0,1000000,10100,000100000,-32767,0,0,0,0,0,0,-2.41,2.72,-11.94,-0.43,-0.03,-0.43,0.00,0.00,0.00,122.0896987,37.5442123,-0.145,-0.160,-0.158,0.000,0.0000000,0.0000000,0.000,0.00,0.00,0.00,0.000,0.00,25,7,4,0,17,54.0
1753884885.499638,1,4.86,23.70,2.18,0,1000000,10100,000100000,-32767,0,0,0,0,0,0,-2.41,2.68,-11.90,-0.41,0.00,-0.35,0.00,0.00,0.00,122.0896987,37.5442123,-0.155,-0.159,-0.157,0.000,0.0000000,0.0000000,0.000,0.00,0.00,0.00,0.000,0.00,25,7,4,0,17,55.0
1753884885.619693,1,4.86,23.70,2.15,0,1000000,10100,000100000,-32767,0,0,0,0,0,0,-2.40,2.62,-11.84,-0.20,0.08,-0.26,0.00,0.00,0.00,122.0896987,37.5442123,-0.155,-0.158,-0.156,0.000,0.0000000,0.0000000,0.000,0.00,0.00,0.00,0.000,0.00,25,7,4,0,17,55.0
1753884885.739701,1,4.86,23.70,2.15,0,1000000,10100,000100000,-32767,0,0,0,0,0,0,-2.38,2.62,-11.81,-0.06,0.12,-0.32,0.00,0.00,0.00,122.0896987,37.5442123,-0.163,-0.159,-0.155,0.000,0.0000000,0.0000000,0.000,0.00,0.00,0.00,0.000,0.00,25,7,4,0,17,55.0
1753884885.863761,1,4.86,23.70,2.15,0,1000000,10100,000100000,-32767,0,0,0,0,0,0,-2.37,2.62,-11.77,0.02,0.13,-0.43,0.00,0.00,0.00,122.0896987,37.5442123,-0.168,-0.161,-0.157,0.000,0.0000000,0.0000000,0.000,0.00,0.00,0.00,0.000,0.00,25,7,4,0,17,55.0
1753884885.981530,1,4.86,23.70,2.15,0,1000000,10100,000100000,-32767,0,0,0,0,0,0,-2.35,2.63,-11.72,0.00,0.13,-0.52,0.00,0.00,0.00,122.0896987,37.5442123,-0.173,-0.163,-0.163,0.000,0.0000000,0.0000000,0.000,0.00,0.00,0.00,0.000,0.00,25,7,4,0,17,55.0
1753884886.099646,1,4.86,23.70,2.15,0,1000000,10100,000100000,-32767,0,0,0,0,0,0,-2.34,2.62,-11.66,-0.14,0.08,-0.54,0.00,0.00,0.00,122.0896987,37.5442123,-0.176,-0.166,-0.167,0.000,0.0000000,0.0000000,0.000,0.00,0.00,0.00,0.000,0.00,25,7,4,0,17,55.0
1753884886.219787,1,4.86,23.70,2.15,0,1000000,10100,000100000,-32767,0,0,0,0,0,0,-2.31,2.55,-11.57,-0.45,0.14,-0.38,0.00,0.00,0.00,122.0896987,37.5442123,-0.187,-0.170,-0.173,0.000,0.0000000,0.0000000,0.000,0.00,0.00,0.00,0.000,0.00,25,7,4,0,17,55.0
1753884886.339709,1,4.86,23.70,2.15,0,1000000,10100,000100000,-32767,0,0,0,0,0,0,-2.28,2.51,-11.54,-0.46,0.24,-0.31,0.00,0.00,0.00,122.0896987,37.5442123,-0.174,-0.171,-0.175,0.000,0.0000000,0.0000000,0.000,0.00,0.00,0.00,0.000,0.00,25,7,4,0,17,55.0
1753884886.463735,1,4.86,23.70,2.16,0,1000000,10100,000100000,-32767,0,0,0,0,0,0,-2.25,2.47,-11.50,-0.37,0.34,-0.31,0.00,0.00,0.00,122.0896987,37.5442123,-0.164,-0.169,-0.175,0.000,0.0000000,0.0000000,0.000,0.00,0.00,0.00,0.000,0.00,25,7,4,0,17,56.0
1753884886.580009,1,4.86,23.70,2.15,0,1000000,10100,000100000,-32767,0,0,0,0,0,0,-2.21,2.45,-11.47,-0.20,0.38,-0.37,0.00,0.00,0.00,122.0896987,37.5442123,-0.157,-0.167,-0.171,0.000,0.0000000,0.0000000,0.000,0.00,0.00,0.00,0.000,0.00,25,7,4,0,17,56.0
1753884886.755257,1,4.86,23.70,2.15,0,1000000,10100,000100000,-32767,0,0,0,0,0,0,-2.17,2.44,-11.43,-0.05,0.32,-0.46,0.00,0.00,0.00,122.0896987,37.5442123,-0.164,-0.166,-0.169,0.000,0.0000000,0.0000000,0.000,0.00,0.00,0.00,0.000,0.00,25,7,4,0,17,56.0
1753884886.819019,1,4.86,23.70,2.15,0,1000000,10100,000100000,-32767,0,0,0,0,0,0,-2.15,2.46,-11.33,0.05,-0.11,-0.47,0.00,0.00,0.00,122.0896987,37.5442123,-0.165,-0.166,-0.165,0.000,0.0000000,0.0000000,0.000,0.00,0.00,0.00,0.000,0.00,25,7,4,0,17,56.0
1753884886.939713,1,4.86,23.70,2.15,0,1000000,10100,000100000,-32767,0,0,0,0,0,0,-2.18,2.47,-11.28,-0.01,-0.35,-0.38,0.00,0.00,0.00,122.0896987,37.5442123,-0.158,-0.164,-0.161,0.000,0.0000000,0.0000000,0.000,0.00,0.00,0.00,0.000,0.00,25,7,4,0,17,56.0
1753884887.063806,1,4.86,23.70,2.15,0,1000000,10100,000100000,-32767,0,0,0,0,0,0,-2.22,2.46,-11.25,-0.08,-0.52,-0.30,0.00,0.00,0.00,122.0896987,37.5442123,-0.164,-0.164,-0.161,0.000,0.0000000,0.0000000,0.000,0.00,0.00,0.00,0.000,0.00,25,7,4,0,17,56.0
1753884887.179952,1,4.86,23.70,2.15,0,1000000,10100,000100000,-32767,0,0,0,0,0,0,-2.27,2.46,-11.22,-0.05,-0.59,-0.28,0.00,0.00,0.00,122.0896987,37.5442123,-0.170,-0.165,-0.164,0.000,0.0000000,0.0000000,0.000,0.00,0.00,0.00,0.000,0.00,25,7,4,0,17,56.0
1753884887.299627,1,4.86,23.70,2.15,0,1000000,10100,000100000,-32767,0,0,0,0,0,0,-2.34,2.46,-11.18,0.05,-0.56,-0.33,0.00,0.00,0.00,122.0896987,37.5442123,-0.180,-0.168,-0.167,0.000,0.0000000,0.0000000,0.000,0.00,0.00,0.00,0.000,0.00,25,7,4,0,17,56.0
1753884887.419757,1,4.86,23.70,2.15,0,1000000,10100,000100000,-32767,0,0,0,0,0,0,-2.43,2.51,-11.10,0.24,-0.50,-0.46,0.00,0.00,0.00,122.0896987,37.5442123,-0.182,-0.171,-0.171,0.000,0.0000000,0.0000000,0.000,0.00,0.00,0.00,0.000,0.00,25,7,4,0,17,57.0
1753884887.539666,1,4.86,23.70,2.15,0,1000000,10100,000100000,-32767,0,0,0,0,0,0,-2.48,2.54,-11.05,0.21,-0.46,-0.47,0.00,0.00,0.00,122.0896987,37.5442123,-0.183,-0.174,-0.176,0.000,0.0000000,0.0000000,0.000,0.00,0.00,0.00,0.000,0.00,25,7,4,0,17,57.0
1753884887.663765,1,4.86,23.70,2.15,0,1000000,10100,000100000,-32767,0,0,0,0,0,0,-2.51,2.55,-11.00,0.08,-0.37,-0.41,0.00,0.00,0.00,122.0896987,37.5442123,-0.184,-0.176,-0.180,0.000,0.0000000,0.0000000,0.000,0.00,0.00,0.00,0.000,0.00,25,7,4,0,17,57.0
1753884887.779845,1,4.86,23.70,2.15,0,1000000,10100,000100000,-32767,0,0,0,0,0,0,-2.54,2.55,-10.96,-0.10,-0.23,-0.32,0.00,0.00,0.00,122.0896987,37.5442123,-0.184,-0.177,-0.183,0.000,0.0000000,0.0000000,0.000,0.00,0.00,0.00,0.000,0.00,25,7,4,0,17,57.0
1753884887.899939,1,4.86,23.70,2.15,0,1000000,10100,000100000,-32767,0,0,0,0,0,0,-2.54,2.53,-10.94,-0.26,-0.08,-0.27,0.00,0.00,0.00,122.0896987,37.5442123,-0.166,-0.175,-0.180,0.000,0.0000000,0.0000000,0.000,0.00,0.00,0.00,0.000,0.00,25,7,4,0,17,57.0
1753884888.019763,1,4.86,23.70,2.16,0,1000000,10100,000100000,-32767,0,0,0,0,0,0,-2.53,2.48,-10.88,-0.26,0.12,-0.29,0.00,0.00,0.00,122.0896987,37.5442123,-0.162,-0.172,-0.176,0.000,0.0000000,0.0000000,0.000,0.00,0.00,0.00,0.000,0.00,25,7,4,0,17,57.0
1753884888.139663,1,4.86,23.70,2.16,0,1000000,10100,000100000,-32767,0,0,0,0,0,0,-2.51,2.46,-10.85,-0.10,0.20,-0.36,0.00,0.00,0.00,122.0896987,37.5442123,-0.155,-0.169,-0.170,0.000,0.0000000,0.0000000,0.000,0.00,0.00,0.00,0.000,0.00,25,7,4,0,17,57.0
1753884888.263738,1,4.86,23.70,2.15,0,1000000,10100,000100000,-32767,0,0,0,0,0,0,-2.48,2.47,-10.81,0.06,0.30,-0.43,0.00,0.00,0.00,122.0896987,37.5442123,-0.169,-0.169,-0.167,0.000,0.0000000,0.0000000,0.000,0.00,0.00,0.00,0.000,0.00,25,7,4,0,17,57.0
1753884888.381494,1,4.86,23.70,2.15,0,1000000,10100,000100000,-32767,0,0,0,0,0,0,-2.44,2.49,-10.76,0.13,0.37,-0.47,0.00,0.00,0.00,122.0896987,37.5442123,-0.173,-0.170,-0.165,0.000,0.0000000,0.0000000,0.000,0.00,0.00,0.00,0.000,0.00,25,7,4,0,17,57.0
1753884888.499624,1,4.86,23.70,2.15,0,1000000,10100,000100000,-32767,0,0,0,0,0,0,-2.40,2.50,-10.72,0.08,0.38,-0.47,0.00,0.00,0.00,122.0896987,37.5442123,-0.176,-0.171,-0.167,0.000,0.0000000,0.0000000,0.000,0.00,0.00,0.00,0.000,0.00,25,7,4,0,17,58.0
1753884888.619741,1,4.86,23.70,2.15,0,1000000,10100,000100000,-32767,0,0,0,0,0,0,-2.34,2.49,-10.64,-0.17,0.18,-0.37,0.00,0.00,0.00,122.0896987,37.5442123,-0.172,-0.171,-0.169,0.000,0.0000000,0.0000000,0.000,0.00,0.00,0.00,0.000,0.00,25,7,4,0,17,58.0
1753884888.739640,1,4.86,23.70,2.15,0,1000000,10100,000100000,-32767,0,0,0,0,0,0,-2.32,2.47,-10.60,-0.23,0.12,-0.31,0.00,0.00,0.00,122.0896987,37.5442123,-0.176,-0.172,-0.173,0.000,0.0000000,0.0000000,0.000,0.00,0.00,0.00,0.000,0.00,25,7,4,0,17,58.0
1753884888.863565,1,4.86,23.70,2.15,0,1000000,10100,000100000,-32767,0,0,0,0,0,0,-2.30,2.46,-10.57,-0.19,0.17,-0.30,0.00,0.00,0.00,122.0896987,37.5442123,-0.178,-0.173,-0.175,0.000,0.0000000,0.0000000,0.000,0.00,0.00,0.00,0.000,0.00,25,7,4,0,17,58.0
1753884888.981529,1,4.86,23.70,2.15,0,1000000,10100,000100000,-32767,0,0,0,0,0,0,-2.27,2.45,-10.54,-0.08,0.26,-0.32,0.00,0.00,0.00,122.0896987,37.5442123,-0.186,-0.176,-0.178,0.000,0.0000000,0.0000000,0.000,0.00,0.00,0.00,0.000,0.00,25,7,4,0,17,58.0
1753884889.099636,1,4.86,23.70,2.15,0,1000000,10100,000100000,-32767,0,0,0,0,0,0,-2.24,2.45,-10.50,0.02,0.28,-0.39,0.00,0.00,0.00,122.0896987,37.5442123,-0.186,-0.178,-0.180,0.000,0.0000000,0.0000000,0.000,0.00,0.00,0.00,0.000,0.00,25,7,4,0,17,58.0
1753884889.219710,1,4.86,23.70,2.19,0,1000000,10100,000100000,-32767,0,0,0,0,0,0,-2.23,2.47,-10.42,0.04,-0.20,-0.40,0.00,0.00,0.00,122.0896987,37.5442123,-0.183,-0.179,-0.182,0.000,0.0000000,0.0000000,0.000,0.00,0.00,0.00,0.000,0.00,25,7,4,0,17,58.0
1753884889.339631,1,4.86,23.70,2.19,0,1000000,10100,000100000,-32767,0,0,0,0,0,0,-2.27,2.47,-10.38,-0.03,-0.51,-0.33,0.00,0.00,0.00,122.0896987,37.5442123,-0.171,-0.178,-0.181,0.000,0.0000000,0.0000000,0.000,0.00,0.00,0.00,0.000,0.00,25,7,4,0,17,58.0
1753884889.463677,1,4.86,23.70,2.15,0,1000000,10100,000100000,-32767,0,0,0,0,0,0,-2.33,2.47,-10.35,-0.09,-0.63,-0.24,0.00,0.00,0.00,122.0896987,37.5442123,-0.175,-0.177,-0.180,0.000,0.0000000,0.0000000,0.000,0.00,0.00,0.00,0.000,0.00,25,7,4,0,17,59.0
1753884889.581501,1,4.86,23.70,2.16,0,1000000,10100,000100000,-32767,0,0,0,0,0,0,-2.38,2.46,-10.33,-0.10,-0.52,-0.22,0.00,0.00,0.00,122.0896987,37.5442123,-0.165,-0.175,-0.176,0.000,0.0000000,0.0000000,0.000,0.00,0.00,0.00,0.000,0.00,25,7,4,0,17,59.0
1753884889.699580,1,4.86,23.70,2.16,0,1000000,10100,000100000,-32767,0,0,0,0,0,0,-2.42,2.45,-10.30,-0.07,-0.27,-0.26,0.00,0.00,0.00,122.0896987,37.5442123,-0.170,-0.174,-0.173,0.000,0.0000000,0.0000000,0.000,0.00,0.00,0.00,0.000,0.00,25,7,4,0,17,59.0
1753884889.819723,1,4.86,23.70,2.15,0,1000000,10100,000100000,-32767,0,0,0,0,0,0,-2.43,2.46,-10.23,0.01,-0.04,-0.38,0.00,0.00,0.00,122.0896987,37.5442123,-0.183,-0.176,-0.173,0.000,0.0000000,0.0000000,0.000,0.00,0.00,0.00,0.000,0.00,25,7,4,0,17,59.0
1753884889.939632,1,4.86,23.70,2.15,0,1000000,10100,000100000,-32767,0,0,0,0,0,0,-2.44,2.46,-10.19,0.01,-0.19,-0.37,0.00,0.00,0.00,122.0896987,37.5442123,-0.190,-0.178,-0.177,0.000,0.0000000,0.0000000,0.000,0.00,0.00,0.00,0.000,0.00,25,7,4,0,17,59.0
1753884890.063772,1,4.86,23.70,2.15,0,1000000,10100,000100000,-32767,0,0,0,0,0,0,-2.47,2.46,-10.16,-0.03,-0.34,-0.31,0.00,0.00,0.00,122.0896987,37.5442123,-0.189,-0.181,-0.179,0.000,0.0000000,0.0000000,0.000,0.00,0.00,0.00,0.000,0.00,25,7,4,0,17,59.0
1753884890.181482,1,4.86,23.70,2.16,0,1000000,10100,000100000,-32767,0,0,0,0,0,0,-2.50,2.46,-10.12,-0.11,-0.31,-0.26,0.00,0.00,0.00,122.0896987,37.5442123,-0.195,-0.183,-0.185,0.000,0.0000000,0.0000000,0.000,0.00,0.00,0.00,0.000,0.00,25,7,4,0,17,59.0
1753884890.299614,1,4.86,23.70,2.16,0,1000000,10100,000100000,-32767,0,0,0,0,0,0,-2.51,2.44,-10.10,-0.18,-0.05,-0.27,0.00,0.00,0.00,122.0896987,37.5442123,-0.193,-0.185,-0.190,0.000,0.0000000,0.0000000,0.000,0.00,0.00,0.00,0.000,0.00,25,7,4,0,17,59.0
1753884890.419741,1,4.86,23.70,2.15,0,1000000,10100,000100000,-32767,0,0,0,0,0,0,-2.44,2.41,-10.03,-0.14,0.49,-0.34,0.00,0.00,0.00,122.0896987,37.5442123,-0.180,-0.184,-0.190,0.000,0.0000000,0.0000000,0.000,0.00,0.00,0.00,0.000,0.00,25,7,4,0,18,0.0
1753884890.539643,1,4.86,23.70,2.15,0,1000000,10100,000100000,-32767,0,0,0,0,0,0,-2.39,2.41,-10.00,-0.05,0.41,-0.30,0.00,0.00,0.00,122.0896987,37.5442123,-0.188,-0.185,-0.189,0.000,0.0000000,0.0000000,0.000,0.00,0.00,0.00,0.000,0.00,25,7,4,0,18,0.0
1753884890.663764,1,4.86,23.70,2.15,0,1000000,10100,000100000,-32767,0,0,0,0,0,0,-2.37,2.41,-9.98,0.02,0.14,-0.22,0.00,0.00,0.00,122.0896987,37.5442123,-0.168,-0.182,-0.185,0.000,0.0000000,0.0000000,0.000,0.00,0.00,0.00,0.000,0.00,25,7,4,0,18,0.0
1753884890.779925,1,4.86,23.70,2.15,0,1000000,10100,000100000,-32767,0,0,0,0,0,0,-2.37,2.42,-9.96,0.07,-0.05,-0.17,0.00,0.00,0.00,122.0896987,37.5442123,-0.173,-0.180,-0.180,0.000,0.0000000,0.0000000,0.000,0.00,0.00,0.00,0.000,0.00,25,7,4,0,18,0.0
1753884890.899935,1,4.86,23.70,2.15,0,1000000,10100,000100000,-32767,0,0,0,0,0,0,-2.37,2.43,-9.94,0.09,0.03,-0.19,0.00,0.00,0.00,122.0896987,37.5442123,-0.182,-0.180,-0.178,0.000,0.0000000,0.0000000,0.000,0.00,0.00,0.00,0.000,0.00,25,7,4,0,18,0.0
1753884891.019620,1,4.86,23.70,2.15,0,1000000,10100,000100000,-32767,0,0,0,0,0,0,-2.27,2.46,-9.89,0.12,0.72,-0.36,0.00,0.00,0.00,122.0896987,37.5442123,-0.189,-0.182,-0.180,0.000,0.0000000,0.0000000,0.000,0.00,0.00,0.00,0.000,0.00,25,7,4,0,18,0.0
1753884891.139618,1,4.86,23.70,2.15,0,1000000,10100,000100000,-32767,0,0,0,0,0,0,-2.19,2.47,-9.86,0.12,0.85,-0.36,0.00,0.00,0.00,122.0896987,37.5442123,-0.188,-0.183,-0.180,0.000,0.0000000,0.0000000,0.000,0.00,0.00,0.00,0.000,0.00,25,7,4,0,18,0.0
1753884891.263664,1,4.86,23.70,2.15,0,1000000,10100,000100000,-32767,0,0,0,0,0,0,-2.11,2.48,-9.83,0.09,0.69,-0.27,0.00,0.00,0.00,122.0896987,37.5442123,-0.188,-0.184,-0.184,0.000,0.0000000,0.0000000,0.000,0.00,0.00,0.00,0.000,0.00,25,7,4,0,18,0.0
1753884891.381444,1,4.86,23.70,2.16,0,1000000,10100,000100000,-32767,0,0,0,0,0,0,-2.07,2.49,-9.81,0.06,0.32,-0.14,0.00,0.00,0.00,122.0896987,37.5442123,-0.175,-0.182,-0.184,0.000,0.0000000,0.0000000,0.000,0.00,0.00,0.00,0.000,0.00,25,7,4,0,18,0.0
1753884891.499605,1,4.86,23.70,2.16,0,1000000,10100,000100000,-32767,0,0,0,0,0,0,-2.06,2.49,-9.80,0.02,-0.04,-0.06,0.00,0.00,0.00,122.0896987,37.5442123,-0.177,-0.181,-0.183,0.000,0.0000000,0.0000000,0.000,0.00,0.00,0.00,0.000,0.00,25,7,4,0,18,1.0
1753884891.619732,1,4.86,23.70,2.17,0,1000000,10100,000100000,-32767,0,0,0,0,0,0,-2.12,2.49,-9.79,-0.02,-0.32,-0.07,0.00,0.00,0.00,122.0896987,37.5442123,-0.159,-0.177,-0.177,0.000,0.0000000,0.0000000,0.000,0.00,0.00,0.00,0.000,0.00,25,7,4,0,18,1.0
1753884891.755985,1,4.86,23.70,2.17,0,1000000,10100,000100000,-32767,0,0,0,0,0,0,-2.14,2.49,-9.78,-0.02,-0.27,-0.10,0.00,0.00,0.00,122.0896987,37.5442123,-0.153,-0.172,-0.170,0.000,0.0000000,0.0000000,0.000,0.00,0.00,0.00,0.000,0.00,25,7,4,0,18,1.0
1753884891.863689,1,4.86,23.70,2.19,0,1000000,10100,000100000,-32767,0,0,0,0,0,0,-2.17,2.49,-9.76,0.00,-0.27,-0.11,0.00,0.00,0.00,122.0896987,37.5442123,-0.161,-0.170,-0.165,0.000,0.0000000,0.0000000,0.000,0.00,0.00,0.00,0.000,0.00,25,7,4,0,18,1.0
1753884891.981441,1,4.86,23.70,2.18,0,1000000,10100,000100000,-32767,0,0,0,0,0,0,-2.20,2.49,-9.75,0.01,-0.34,-0.09,0.00,0.00,0.00,122.0896987,37.5442123,-0.154,-0.166,-0.161,0.000,0.0000000,0.0000000,0.000,0.00,0.00,0.00,0.000,0.00,25,7,4,0,18,1.0
1753884892.099597,1,4.86,23.70,2.18,0,1000000,10100,000100000,-32767,0,0,0,0,0,0,-2.25,2.50,-9.75,0.03,-0.45,-0.05,0.00,0.00,0.00,122.0896987,37.5442123,-0.162,-0.166,-0.157,0.000,0.0000000,0.0000000,0.000,0.00,0.00,0.00,0.000,0.00,25,7,4,0,18,1.0
1753884892.219678,1,4.86,23.70,2.19,0,1000000,10100,000100000,-32767,0,0,0,0,0,0,-2.35,2.51,-9.73,0.02,-0.56,-0.06,0.00,0.00,0.00,122.0896987,37.5442123,-0.178,-0.168,-0.161,0.000,0.0000000,0.0000000,0.000,0.00,0.00,0.00,0.000,0.00,25,7,4,0,18,1.0
1753884892.339602,1,4.86,23.70,2.19,0,1000000,10100,000100000,-32767,0,0,0,0,0,0,-2.41,2.51,-9.72,-0.03,-0.50,-0.09,0.00,0.00,0.00,122.0896987,37.5442123,-0.180,-0.170,-0.167,0.000,0.0000000,0.0000000,0.000,0.00,0.00,0.00,0.000,0.00,25,7,4,0,18,1.0
1753884892.463735,1,4.86,23.70,2.19,0,1000000,10100,000100000,-32767,0,0,0,0,0,0,-2.44,2.50,-9.71,-0.09,-0.36,-0.09,0.00,0.00,0.00,122.0896987,37.5442123,-0.182,-0.173,-0.171,0.000,0.0000000,0.0000000,0.000,0.00,0.00,0.00,0.000,0.00,25,7,4,0,18,2.0
1753884892.581550,1,4.86,23.70,2.18,0,1000000,10100,000100000,-32767,0,0,0,0,0,0,-2.47,2.49,-9.70,-0.13,-0.19,-0.07,0.00,0.00,0.00,122.0896987,37.5442123,-0.163,-0.171,-0.173,0.000,0.0000000,0.0000000,0.000,0.00,0.00,0.00,0.000,0.00,25,7,4,0,18,2.0
1753884892.699563,1,4.86,23.70,2.18,0,1000000,10100,000100000,-32767,0,0,0,0,0,0,-2.47,2.47,-9.69,-0.14,-0.04,-0.04,0.00,0.00,0.00,122.0896987,37.5442123,-0.169,-0.170,-0.174,0.000,0.0000000,0.0000000,0.000,0.00,0.00,0.00,0.000,0.00,25,7,4,0,18,2.0
1753884892.819688,1,4.86,23.70,2.16,0,1000000,10100,000100000,-32767,0,0,0,0,0,0,-2.46,2.46,-9.68,0.01,0.13,-0.04,0.00,0.00,0.00,122.0896987,37.5442123,-0.163,-0.169,-0.172,0.000,0.0000000,0.0000000,0.000,0.00,0.00,0.00,0.000,0.00,25,7,4,0,18,2.0
1753884892.939608,1,4.86,23.70,2.16,0,1000000,10100,000100000,-32767,0,0,0,0,0,0,-2.44,2.47,-9.67,0.10,0.19,-0.08,0.00,0.00,0.00,122.0896987,37.5442123,-0.169,-0.169,-0.169,0.000,0.0000000,0.0000000,0.000,0.00,0.00,0.00,0.000,0.00,25,7,4,0,18,2.0
1753884893.063764,1,4.86,23.70,2.16,0,1000000,10100,000100000,-32767,0,0,0,0,0,0,-2.42,2.48,-9.66,0.10,0.21,-0.12,0.00,0.00,0.00,122.0896987,37.5442123,-0.179,-0.171,-0.169,0.000,0.0000000,0.0000000,0.000,0.00,0.00,0.00,0.000,0.00,25,7,4,0,18,2.0
1753884893.181438,1,4.86,23.70,2.16,0,1000000,10100,000100000,-32767,0,0,0,0,0,0,-2.40,2.49,-9.65,0.02,0.17,-0.13,0.00,0.00,0.00,122.0896987,37.5442123,-0.181,-0.173,-0.172,0.000,0.0000000,0.0000000,0.000,0.00,0.00,0.00,0.000,0.00,25,7,4,0,18,2.0
1753884893.299568,1,4.86,23.70,2.16,0,1000000,10100,000100000,-32767,0,0,0,0,0,0,-2.38,2.48,-9.64,-0.09,0.08,-0.09,0.00,0.00,0.00,122.0896987,37.5442123,-0.189,-0.176,-0.176,0.000,0.0000000,0.0000000,0.000,0.00,0.00,0.00,0.000,0.00,25,7,4,0,18,2.0
1753884893.419660,1,4.86,23.70,2.16,0,1000000,10100,000100000,-32767,0,0,0,0,0,0,-2.38,2.44,-9.63,-0.22,0.07,-0.01,0.00,0.00,0.00,122.0896987,37.5442123,-0.175,-0.176,-0.179,0.000,0.0000000,0.0000000,0.000,0.00,0.00,0.00,0.000,0.00,25,7,4,0,18,3.0
1753884893.539585,1,4.86,23.70,2.16,0,1000000,10100,000100000,-32767,0,0,0,0,0,0,-2.36,2.42,-9.63,-0.18,0.27,-0.03,0.00,0.00,0.00,122.0896987,37.5442123,-0.146,-0.170,-0.174,0.000,0.0000000,0.0000000,0.000,0.00,0.00,0.00,0.000,0.00,25,7,4,0,18,3.0
1753884893.663653,1,4.86,23.70,2.18,0,1000000,10100,000100000,-32767,0,0,0,0,0,0,-2.31,2.41,-9.62,-0.08,0.46,-0.07,0.00,0.00,0.00,122.0896987,37.5442123,-0.143,-0.164,-0.167,0.000,0.0000000,0.0000000,0.000,0.00,0.00,0.00,0.000,0.00,25,7,4,0,18,3.0
1753884893.779728,1,4.86,23.70,2.17,0,1000000,10100,000100000,-32767,0,0,0,0,0,0,-2.26,2.41,-9.61,0.03,0.49,-0.10,0.00,0.00,0.00,122.0896987,37.5442123,-0.140,-0.160,-0.158,0.000,0.0000000,0.0000000,0.000,0.00,0.00,0.00,0.000,0.00,25,7,4,0,18,3.0
1753884893.899963,1,4.86,23.70,2.17,0,1000000,10100,000100000,-32767,0,0,0,0,0,0,-2.23,2.42,-9.61,0.12,0.27,-0.10,0.00,0.00,0.00,122.0896987,37.5442123,-0.158,-0.159,-0.152,0.000,0.0000000,0.0000000,0.000,0.00,0.00,0.00,0.000,0.00,25,7,4,0,18,3.0
1753884894.019690,1,4.86,23.70,2.16,0,1000000,10100,000100000,-32767,0,0,0,0,0,0,-2.26,2.45,-9.60,0.10,-0.37,-0.01,0.00,0.00,0.00,122.0896987,37.5442123,-0.155,-0.158,-0.148,0.000,0.0000000,0.0000000,0.000,0.00,0.00,0.00,0.000,0.00,25,7,4,0,18,3.0
1753884894.139623,1,4.86,23.70,2.16,0,1000000,10100,000100000,-32767,0,0,0,0,0,0,-2.30,2.46,-9.60,0.00,-0.40,0.01,0.00,0.00,0.00,122.0896987,37.5442123,-0.162,-0.159,-0.152,0.000,0.0000000,0.0000000,0.000,0.00,0.00,0.00,0.000,0.00,25,7,4,0,18,3.0
1753884894.263665,1,4.86,23.70,2.18,0,1000000,10100,000100000,-32767,0,0,0,0,0,0,-2.33,2.45,-9.59,-0.07,-0.21,0.00,0.00,0.00,0.00,122.0896987,37.5442123,-0.149,-0.157,-0.153,0.000,0.0000000,0.0000000,0.000,0.00,0.00,0.00,0.000,0.00,25,7,4,0,18,3.0
1753884894.381392,1,4.86,23.70,2.18,0,1000000,10100,000100000,-32767,0,0,0,0,0,0,-2.34,2.44,-9.59,-0.08,0.01,-0.03,0.00,0.00,0.00,122.0896987,37.5442123,-0.126,-0.151,-0.150,0.000,0.0000000,0.0000000,0.000,0.00,0.00,0.00,0.000,0.00,25,7,4,0,18,3.0
1753884894.499451,1,4.86,23.70,2.18,0,1000000,10100,000100000,-32767,0,0,0,0,0,0,-2.32,2.43,-9.59,-0.06,0.08,-0.07,0.00,0.00,0.00,122.0896987,37.5442123,-0.140,-0.149,-0.147,0.000,0.0000000,0.0000000,0.000,0.00,0.00,0.00,0.000,0.00,25,7,4,0,18,4.0
1753884894.619715,1,4.86,23.70,2.17,0,1000000,10100,000100000,-32767,0,0,0,0,0,0,-2.35,2.43,-9.57,0.00,-0.26,-0.03,0.00,0.00,0.00,122.0896987,37.5442123,-0.160,-0.151,-0.147,0.000,0.0000000,0.0000000,0.000,0.00,0.00,0.00,0.000,0.00,25,7,4,0,18,4.0
1753884894.739583,1,4.86,23.70,2.17,0,1000000,10100,000100000,-32767,0,0,0,0,0,0,-2.38,2.43,-9.57,0.05,-0.36,0.01,0.00,0.00,0.00,122.0896987,37.5442123,-0.166,-0.154,-0.148,0.000,0.0000000,0.0000000,0.000,0.00,0.00,0.00,0.000,0.00,25,7,4,0,18,4.0
1753884894.863746,1,4.86,23.70,2.17,0,1000000,10100,000100000,-32767,0,0,0,0,0,0,-2.41,2.44,-9.57,0.10,-0.25,0.05,0.00,0.00,0.00,122.0896987,37.5442123,-0.158,-0.155,-0.150,0.000,0.0000000,0.0000000,0.000,0.00,0.00,0.00,0.000,0.00,25,7,4,0,18,4.0
1753884894.979860,1,4.86,23.70,2.19,0,1000000,10100,000100000,-32767,0,0,0,0,0,0,-2.42,2.46,-9.58,0.15,0.00,0.03,0.00,0.00,0.00,122.0896987,37.5442123,-0.165,-0.157,-0.158,0.000,0.0000000,0.0000000,0.000,0.00,0.00,0.00,0.000,0.00,25,7,4,0,18,4.0
1753884895.099550,1,4.86,23.70,2.19,0,1000000,10100,000100000,-32767,0,0,0,0,0,0,-2.40,2.48,-9.58,0.21,0.22,-0.02,0.00,0.00,0.00,122.0896987,37.5442123,-0.151,-0.156,-0.160,0.000,0.0000000,0.0000000,0.000,0.00,0.00,0.00,0.000,0.00,25,7,4,0,18,4.0
1753884895.219673,1,4.86,23.70,2.22,0,1000000,10100,000100000,-32767,0,0,0,0,0,0,-2.35,2.53,-9.56,0.22,0.15,-0.10,0.00,0.00,0.00,122.0896987,37.5442123,-0.172,-0.159,-0.162,0.000,0.0000000,0.0000000,0.000,0.00,0.00,0.00,0.000,0.00,25,7,4,0,18,4.0
1753884895.339619,1,4.86,23.70,2.22,0,1000000,10100,000100000,-32767,0,0,0,0,0,0,-2.35,2.54,-9.55,0.17,-0.03,-0.08,0.00,0.00,0.00,122.0896987,37.5442123,-0.175,-0.162,-0.164,0.000,0.0000000,0.0000000,0.000,0.00,0.00,0.00,0.000,0.00,25,7,4,0,18,4.0
1753884895.463612,1,4.86,23.70,2.23,0,1000000,10100,000100000,-32767,0,0,0,0,0,0,-2.36,2.55,-9.55,0.10,-0.13,-0.03,0.00,0.00,0.00,122.0896987,37.5442123,-0.178,-0.165,-0.168,0.000,0.0000000,0.0000000,0.000,0.00,0.00,0.00,0.000,0.00,25,7,4,0,18,5.0
1753884895.581345,1,4.86,23.70,2.27,0,1000000,10100,000100000,-32767,0,0,0,0,0,0,-2.37,2.57,-9.55,0.06,-0.09,0.00,0.00,0.00,0.00,122.0896987,37.5442123,-0.186,-0.169,-0.172,0.000,0.0000000,0.0000000,0.000,0.00,0.00,0.00,0.000,0.00,25,7,4,0,18,5.0
1753884895.699522,1,4.86,23.70,2.27,0,1000000,10100,000100000,-32767,0,0,0,0,0,0,-2.37,2.57,-9.55,0.04,0.05,0.02,0.00,0.00,0.00,122.0896987,37.5442123,-0.193,-0.174,-0.181,0.000,0.0000000,0.0000000,0.000,0.00,0.00,0.00,0.000,0.00,25,7,4,0,18,5.0
1753884895.819641,1,4.86,23.70,2.17,0,1000000,10100,000100000,-32767,0,0,0,0,0,0,-2.33,2.58,-9.55,0.04,0.26,0.00,0.00,0.00,0.00,122.0896987,37.5442123,-0.203,-0.180,-0.187,0.000,0.0000000,0.0000000,0.000,0.00,0.00,0.00,0.000,0.00,25,7,4,0,18,5.0
1753884895.939598,1,4.86,23.70,2.17,0,1000000,10100,000100000,-32767,0,0,0,0,0,0,-2.31,2.58,-9.55,0.03,0.21,-0.02,0.00,0.00,0.00,122.0896987,37.5442123,-0.199,-0.184,-0.192,0.000,0.0000000,0.0000000,0.000,0.00,0.00,0.00,0.000,0.00,25,7,4,0,18,5.0
1753884896.063735,1,4.86,23.70,2.16,0,1000000,10100,000100000,-32767,0,0,0,0,0,0,-2.30,2.58,-9.55,-0.01,0.07,-0.03,0.00,0.00,0.00,122.0896987,37.5442123,-0.202,-0.187,-0.197,0.000,0.0000000,0.0000000,0.000,0.00,0.00,0.00,0.000,0.00,25,7,4,0,18,5.0
1753884896.181335,1,4.86,23.70,2.16,0,1000000,10100,000100000,-32767,0,0,0,0,0,0,-2.30,2.57,-9.54,-0.10,-0.06,-0.02,0.00,0.00,0.00,122.0896987,37.5442123,-0.198,-0.190,-0.199,0.000,0.0000000,0.0000000,0.000,0.00,0.00,0.00,0.000,0.00,25,7,4,0,18,5.0
1753884896.299575,1,4.86,23.70,2.16,0,1000000,10100,000100000,-32767,0,0,0,0,0,0,-2.31,2.55,-9.54,-0.20,-0.14,0.00,0.00,0.00,0.00,122.0896987,37.5442123,-0.202,-0.192,-0.201,0.000,0.0000000,0.0000000,0.000,0.00,0.00,0.00,0.000,0.00,25,7,4,0,18,5.0
1753884896.419635,1,4.86,23.70,2.16,0,1000000,10100,000100000,-32767,0,0,0,0,0,0,-2.34,2.50,-9.55,-0.24,-0.02,0.07,0.00,0.00,0.00,122.0896987,37.5442123,-0.202,-0.194,-0.201,0.000,0.0000000,0.0000000,0.000,0.00,0.00,0.00,0.000,0.00,25,7,4,0,18,6.0
1753884896.539620,1,4.86,23.70,2.16,0,1000000,10100,000100000,-32767,0,0,0,0,0,0,-2.34,2.48,-9.55,-0.18,0.03,0.06,0.00,0.00,0.00,122.0896987,37.5442123,-0.185,-0.192,-0.198,0.000,0.0000000,0.0000000,0.000,0.00,0.00,0.00,0.000,0.00,25,7,4,0,18,6.0
1753884896.663688,1,4.86,23.70,2.20,0,1000000,10100,000100000,-32767,0,0,0,0,0,0,-2.33,2.47,-9.56,-0.11,0.00,0.02,0.00,0.00,0.00,122.0896987,37.5442123,-0.185,-0.191,-0.194,0.000,0.0000000,0.0000000,0.000,0.00,0.00,0.00,0.000,0.00,25,7,4,0,18,6.0
1753884896.783820,1,4.86,23.70,2.20,0,1000000,10100,000100000,-32767,0,0,0,0,0,0,-2.34,2.46,-9.56,-0.08,-0.14,0.00,0.00,0.00,0.00,122.0896987,37.5442123,-0.186,-0.190,-0.192,0.000,0.0000000,0.0000000,0.000,0.00,0.00,0.00,0.000,0.00,25,7,4,0,18,6.0
1753884896.899782,1,4.86,23.70,2.20,0,1000000,10100,000100000,-32767,0,0,0,0,0,0,-2.37,2.45,-9.55,-0.10,-0.26,-0.02,0.00,0.00,0.00,122.0896987,37.5442123,-0.173,-0.186,-0.186,0.000,0.0000000,0.0000000,0.000,0.00,0.00,0.00,0.000,0.00,25,7,4,0,18,6.0
1753884897.019569,1,4.86,23.70,2.20,0,1000000,10100,000100000,-32767,0,0,0,0,0,0,-2.41,2.42,-9.55,-0.11,-0.11,0.02,0.00,0.00,0.00,122.0896987,37.5442123,-0.166,-0.182,-0.179,0.000,0.0000000,0.0000000,0.000,0.00,0.00,0.00,0.000,0.00,25,7,4,0,18,6.0
1753884897.139572,1,4.86,23.70,2.20,0,1000000,10100,000100000,-32767,0,0,0,0,0,0,-2.41,2.41,-9.55,-0.09,0.09,0.04,0.00,0.00,0.00,122.0896987,37.5442123,-0.158,-0.177,-0.174,0.000,0.0000000,0.0000000,0.000,0.00,0.00,0.00,0.000,0.00,25,7,4,0,18,6.0
1753884897.263592,1,4.86,23.70,2.27,0,1000000,10100,000100000,-32767,0,0,0,0,0,0,-2.39,2.41,-9.56,-0.05,0.20,0.04,0.00,0.00,0.00,122.0896987,37.5442123,-0.171,-0.176,-0.171,0.000,0.0000000,0.0000000,0.000,0.00,0.00,0.00,0.000,0.00,25,7,4,0,18,6.0
1753884897.379672,1,4.86,23.70,2.21,0,1000000,10100,000100000,-32767,0,0,0,0,0,0,-2.37,2.41,-9.56,0.00,0.13,0.03,0.00,0.00,0.00,122.0896987,37.5442123,-0.175,-0.176,-0.169,0.000,0.0000000,0.0000000,0.000,0.00,0.00,0.00,0.000,0.00,25,7,4,0,18,6.0
1753884897.499278,1,4.86,23.70,2.21,0,1000000,10100,000100000,-32767,0,0,0,0,0,0,-2.37,2.41,-9.57,0.07,-0.03,0.02,0.00,0.00,0.00,122.0896987,37.5442123,-0.177,-0.176,-0.169,0.000,0.0000000,0.0000000,0.000,0.00,0.00,0.00,0.000,0.00,25,7,4,0,18,7.0
1753884897.619721,1,4.86,23.70,2.19,0,1000000,10100,000100000,-32767,0,0,0,0,0,0,-2.40,2.43,-9.57,0.13,-0.08,0.02,0.00,0.00,0.00,122.0896987,37.5442123,-0.181,-0.177,-0.172,0.000,0.0000000,0.0000000,0.000,0.00,0.00,0.00,0.000,0.00,25,7,4,0,18,7.0
1753884897.739482,1,4.86,23.70,2.19,0,1000000,10100,000100000,-32767,0,0,0,0,0,0,-2.40,2.45,-9.58,0.13,0.04,0.03,0.00,0.00,0.00,122.0896987,37.5442123,-0.163,-0.174,-0.173,0.000,0.0000000,0.0000000,0.000,0.00,0.00,0.00,0.000,0.00,25,7,4,0,18,7.0
1753884897.863663,1,4.86,23.70,2.17,0,1000000,10100,000100000,-32767,0,0,0,0,0,0,-2.38,2.46,-9.58,0.13,0.11,0.03,0.00,0.00,0.00,122.0896987,37.5442123,-0.156,-0.171,-0.170,0.000,0.0000000,0.0000000,0.000,0.00,0.00,0.00,0.000,0.00,25,7,4,0,18,7.0
1753884897.981331,1,4.86,23.70,2.16,0,1000000,10100,000100000,-32767,0,0,0,0,0,0,-2.38,2.48,-9.58,0.14,0.09,0.03,0.00,0.00,0.00,122.0896987,37.5442123,-0.150,-0.167,-0.166,0.000,0.0000000,0.0000000,0.000,0.00,0.00,0.00,0.000,0.00,25,7,4,0,18,7.0
1753884898.099485,1,4.86,23.70,2.16,0,1000000,10100,000100000,-32767,0,0,0,0,0,0,-2.37,2.49,-9.59,0.14,0.07,0.01,0.00,0.00,0.00,122.0896987,37.5442123,-0.140,-0.161,-0.158,0.000,0.0000000,0.0000000,0.000,0.00,0.00,0.00,0.000,0.00,25,7,4,0,18,7.0
1753884898.219535,1,4.86,23.70,2.21,0,1000000,10100,000100000,-32767,0,0,0,0,0,0,-2.34,2.52,-9.59,0.08,0.25,0.00,0.00,0.00,0.00,122.0896987,37.5442123,-0.164,-0.162,-0.155,0.000,0.0000000,0.0000000,0.000,0.00,0.00,0.00,0.000,0.00,25,7,4,0,18,7.0
1753884898.339564,1,4.86,23.70,2.21,0,1000000,10100,000100000,-32767,0,0,0,0,0,0,-2.31,2.52,-9.59,0.03,0.21,0.03,0.00,0.00,0.00,122.0896987,37.5442123,-0.169,-0.163,-0.156,0.000,0.0000000,0.0000000,0.000,0.00,0.00,0.00,0.000,0.00,25,7,4,0,18,7.0
1753884898.464280,1,4.86,23.60,2.28,0,1000000,10100,000100000,-32767,0,0,0,0,0,0,-2.30,2.52,-9.60,-0.02,0.03,0.10,0.00,0.00,0.00,122.0896987,37.5442123,-0.173,-0.165,-0.159,0.000,0.0000000,0.0000000,0.000,0.00,0.00,0.00,0.000,0.00,25,7,4,0,18,8.0
1753884898.581384,1,4.86,23.70,2.26,0,1000000,10100,000100000,-32767,0,0,0,0,0,0,-2.31,2.51,-9.61,-0.05,-0.04,0.16,0.00,0.00,0.00,122.0896987,37.5442123,-0.164,-0.165,-0.162,0.000,0.0000000,0.0000000,0.000,0.00,0.00,0.00,0.000,0.00,25,7,4,0,18,8.0
1753884898.699551,1,4.86,23.70,2.26,0,1000000,10100,000100000,-32767,0,0,0,0,0,0,-2.31,2.51,-9.64,-0.04,-0.04,0.18,0.00,0.00,0.00,122.0896987,37.5442123,-0.169,-0.166,-0.168,0.000,0.0000000,0.0000000,0.000,0.00,0.00,0.00,0.000,0.00,25,7,4,0,18,8.0
1753884898.819644,1,4.86,23.70,2.24,0,1000000,10100,000100000,-32767,0,0,0,0,0,0,-2.31,2.51,-9.66,0.04,0.13,0.12,0.00,0.00,0.00,122.0896987,37.5442123,-0.167,-0.166,-0.168,0.000,0.0000000,0.0000000,0.000,0.00,0.00,0.00,0.000,0.00,25,7,4,0,18,8.0
