pc_timestamp,mode,temperature,control_voltage,power_current,water_leak,sensor_status,sensor_update,fault_status,power_status,force_cmd1,force_cmd2,force_cmd3,force_cmd4,force_cmd5,force_cmd6,roll,pitch,yaw,angular_vel_x,angular_vel_y,angular_vel_z,linear_vel_x,linear_vel_y,linear_vel_z,longitude,latitude,depth_raw,depth_lpf,depth_ma,altitude,target_longitude,target_latitude,target_depth,target_roll,target_pitch,target_yaw,target_altitude,target_speed,utc_year,utc_month,utc_day,utc_hour,utc_minute,utc_second
1754066366.580641,4,4.32,21.40,1.70,0,1100000,11100,000100000,-32765,0,0,0,0,0,0,-1.54,1.18,-9.95,0.62,3.15,0.14,0.02,0.00,-0.01,122.0896918,37.5442272,-0.247,-0.247,-0.247,0.000,122.0896402,37.5442227,0.157,0.00,1.50,-5.09,-166153499473114484112975882535043072.000,34.04,25,7,4,1,17,33.0
1754066366.584786,4,4.32,21.30,1.70,0,1100000,11100,000100000,-32765,0,0,0,0,0,0,-0.63,1.28,-9.88,0.43,4.01,-0.72,0.01,0.00,0.00,122.0896918,37.5442273,-0.271,-0.252,-0.259,0.000,122.0896402,37.5442227,0.157,0.00,1.50,-5.09,-0.000,33.58,25,7,4,1,17,33.0
1754066366.590673,4,4.32,21.30,1.75,0,1100000,11100,000100000,-32765,0,0,0,0,0,0,-0.42,1.30,-9.80,0.09,1.27,-0.83,0.01,0.00,0.00,122.0896918,37.5442273,-0.264,-0.254,-0.261,0.000,122.0896402,37.5442227,0.157,0.00,1.50,-5.09,-0.000,33.00,25,7,4,1,17,33.0
1754066366.591754,4,4.32,21.30,1.74,0,1100000,11100,000100000,-32765,0,0,0,0,0,0,-0.51,1.29,-9.76,-0.17,-1.61,-0.20,0.00,0.00,0.00,122.0896918,37.5442273,-0.258,-0.255,-0.260,0.000,122.0896402,37.5442227,0.157,0.00,1.50,-5.09,-0.000,32.73,25,7,4,1,17,33.0
1754066366.594050,4,4.32,21.30,2.13,0,1100000,11100,000100000,-32765,0,0,0,0,0,0,-0.79,1.24,-9.81,-0.67,-2.80,0.67,0.00,0.00,0.00,122.0896918,37.5442273,-0.254,-0.255,-0.259,0.000,122.0896402,37.5442227,0.157,0.00,1.50,-5.09,-536870912.000,33.04,25,7,4,1,17,33.0
1754066366.594903,4,4.32,21.30,1.96,0,1100000,11100,000100000,-32765,0,0,0,0,0,0,-0.98,1.13,-9.91,-1.04,-1.48,1.19,0.00,0.00,0.00,122.0896918,37.5442273,-0.250,-0.254,-0.260,0.000,122.0896402,37.5442227,0.157,0.00,1.50,-5.09,0.000,33.77,25,7,4,1,17,33.0
1754066366.595683,4,4.32,21.30,1.96,0,1100000,11100,000100000,-32765,0,0,0,0,0,0,-0.76,0.88,-10.12,-1.06,2.29,0.71,0.00,0.00,0.00,122.0896918,37.5442273,-0.261,-0.255,-0.257,0.000,122.0896402,37.5442227,0.157,0.00,1.50,-5.09,-2436741105160736930267136.000,35.00,25,7,4,1,17,34.0
1754066366.596408,4,4.32,21.30,2.03,0,1100000,11100,000100000,-32765,0,0,0,0,0,0,-0.52,0.82,-10.14,-0.53,2.35,-0.02,0.00,0.00,0.00,122.0896918,37.5442273,-0.294,-0.263,-0.263,0.000,122.0896402,37.5442227,0.157,0.00,1.50,-5.09,0.000,35.00,25,7,4,1,17,34.0
1754066366.597103,4,4.32,21.30,2.04,0,1100000,11100,000100000,-32765,0,0,0,0,0,0,-0.36,0.82,-10.09,0.19,1.25,-0.62,0.00,0.00,0.00,122.0896918,37.5442273,-0.294,-0.269,-0.271,0.000,122.0896402,37.5442227,0.157,0.00,1.50,-5.09,0.000,35.00,25,7,4,1,17,34.0
1754066366.597795,4,4.32,21.30,2.02,0,1100000,11100,000100000,-32765,0,0,0,0,0,0,-0.35,0.90,-10.01,0.87,-0.25,-0.80,0.01,0.00,0.00,122.0896918,37.5442273,-0.281,-0.271,-0.276,0.000,122.0896402,37.5442227,0.157,0.00,1.50,-5.09,-9295429630892703744.000,34.50,25,7,4,1,17,34.0
1754066366.598422,4,4.32,21.30,2.02,0,1100000,11100,000100000,-32765,0,0,0,0,0,0,-0.46,1.02,-9.94,1.25,-1.40,-0.76,0.01,0.00,0.00,122.0896918,37.5442273,-0.297,-0.277,-0.285,0.000,122.0896402,37.5442227,0.157,0.00,1.50,-5.09,42867602864063536901147777694041112576.000,33.96,25,7,4,1,17,34.0
1754066366.599134,4,4.32,21.30,2.02,0,1100000,11100,000100000,-32765,0,0,0,0,0,0,-0.92,1.29,-9.85,1.24,-2.53,-0.26,0.01,0.00,0.00,122.0896918,37.5442273,-0.273,-0.276,-0.288,0.000,122.0896402,37.5442227,0.157,0.00,1.50,-5.09,-0.000,33.35,25,7,4,1,17,34.0
1754066366.599787,4,4.32,21.30,2.02,0,1100000,11100,000100000,-32765,0,0,0,0,0,0,-1.18,1.40,-9.81,1.08,-2.63,-0.24,0.01,0.00,0.00,122.0896918,37.5442273,-0.265,-0.274,-0.282,0.000,122.0896402,37.5442227,0.157,0.00,1.50,-5.09,2147483648.000,33.08,25,7,4,1,17,34.0
1754066366.600418,4,4.32,21.30,2.02,0,1100000,11100,000100000,-32765,0,0,0,0,0,0,-1.44,1.48,-9.78,0.79,-2.63,-0.28,0.01,0.00,0.00,122.0896918,37.5442273,-0.285,-0.276,-0.280,0.000,122.0896402,37.5442227,0.157,0.00,1.50,-5.09,0.000,32.89,25,7,4,1,17,34.0
1754066366.601017,4,4.32,21.30,1.99,0,1100000,11100,000100000,-32765,0,0,0,0,0,0,-1.68,1.51,-9.74,-0.05,-2.11,-0.39,0.00,0.00,0.01,122.0896918,37.5442273,-0.300,-0.281,-0.284,0.000,122.0896402,37.5442227,0.157,0.00,1.50,-5.09,-41376115591449407664852392623472640.000,32.58,25,7,4,1,17,35.0
1754066366.601548,4,4.32,21.30,1.99,0,1100000,11100,000100000,-32765,0,0,0,0,0,0,-1.78,1.44,-9.70,-0.81,-0.70,-0.38,0.00,0.00,0.01,122.0896918,37.5442273,-0.298,-0.284,-0.284,0.000,122.0896402,37.5442227,0.157,0.00,1.50,-5.09,0.000,32.27,25,7,4,1,17,35.0
1754066366.602041,4,4.32,21.30,1.99,0,1100000,11100,000100000,-32765,0,0,0,0,0,0,-1.63,1.17,-9.56,-1.55,1.27,-0.79,-0.01,0.00,0.00,122.0896918,37.5442273,-0.301,-0.287,-0.290,0.000,122.0896402,37.5442227,0.157,0.00,1.50,-5.09,0.000,31.35,25,7,4,1,17,35.0
1754066366.690834,4,4.32,21.30,1.99,0,1100000,11100,000100000,-32765,0,0,0,0,0,0,-1.47,1.01,-9.48,-1.57,1.64,-0.76,-0.01,0.00,0.00,122.0896918,37.5442273,-0.299,-0.290,-0.296,0.000,122.0896402,37.5442227,0.157,0.00,1.50,-5.09,-0.000,30.77,25,7,4,1,17,35.0
1754066366.809184,4,4.32,21.30,1.97,0,1100000,11100,000100000,-32765,0,0,0,0,0,0,-1.29,0.88,-9.41,-1.22,1.73,-0.72,-0.02,-0.01,0.00,122.0896918,37.5442273,-0.304,-0.293,-0.300,0.000,122.0896402,37.5442227,0.157,0.00,1.50,-5.09,-623805722921148654148386816.000,30.27,25,7,4,1,17,35.0
1754066366.928699,4,4.32,21.30,1.98,0,1100000,11100,000100000,-32765,0,0,0,0,0,0,-1.11,0.80,-9.36,-0.62,1.85,-0.49,-0.01,-0.01,0.00,122.0896918,37.5442273,-0.308,-0.296,-0.302,0.000,122.0896402,37.5442227,0.157,0.00,1.50,-5.09,0.000,29.89,25,7,4,1,17,35.0
1754066367.057702,4,4.32,21.30,1.98,0,1100000,11100,000100000,-32765,0,0,0,0,0,0,-0.91,0.80,-9.34,0.19,2.02,-0.08,-0.01,0.00,0.00,122.0896918,37.5442273,-0.285,-0.294,-0.299,0.000,122.0896402,37.5442227,0.157,0.00,1.50,-5.09,0.000,29.77,25,7,4,1,17,35.0
1754066367.169543,4,4.32,21.30,1.97,0,1100000,11100,000100000,-32765,0,0,0,0,0,0,-0.48,1.06,-9.39,1.81,2.34,0.22,0.00,0.00,0.00,122.0896917,37.5442273,-0.293,-0.293,-0.298,0.000,122.0896402,37.5442227,0.157,0.00,1.50,-5.09,36310271995674624.000,30.12,25,7,4,1,17,35.0
1754066367.290693,4,4.32,21.30,1.97,0,1100000,11100,000100000,-32765,0,0,0,0,0,0,-0.22,1.26,-9.39,2.08,2.65,-0.08,0.00,0.00,0.00,122.0896917,37.5442273,-0.300,-0.295,-0.298,0.000,122.0896402,37.5442227,0.157,0.00,1.50,-5.09,-0.000,30.12,25,7,4,1,17,36.0
1754066367.408738,4,4.32,21.30,1.91,0,1100000,11100,000100000,-32765,0,0,0,0,0,0,0.02,1.46,-9.37,1.85,2.48,-0.25,0.00,0.00,0.00,122.0896917,37.5442273,-0.305,-0.297,-0.298,0.000,122.0896402,37.5442227,0.157,0.00,1.50,-5.09,0.000,29.96,25,7,4,1,17,36.0
1754066367.528685,4,4.32,21.30,1.87,0,1100000,11100,000100000,-32765,0,0,0,0,0,0,0.23,1.58,-9.32,0.95,1.99,-0.50,0.00,0.00,0.00,122.0896917,37.5442273,-0.315,-0.300,-0.300,0.000,122.0896402,37.5442227,0.157,0.00,1.50,-5.09,-0.002,29.66,25,7,4,1,17,36.0
1754066367.656893,4,4.32,21.30,1.88,0,1100000,11100,000100000,-32765,0,0,0,0,0,0,0.37,1.59,-9.27,-0.14,1.23,-0.41,0.00,0.00,0.00,122.0896917,37.5442273,-0.310,-0.302,-0.304,0.000,122.0896402,37.5442227,0.157,0.00,1.50,-5.09,-0.000,29.31,25,7,4,1,17,36.0
1754066367.768751,4,4.32,21.40,1.87,0,1100000,11100,000100000,-32765,0,0,0,0,0,0,0.38,1.34,-9.31,-1.78,-0.65,0.51,0.00,0.00,0.00,122.0896917,37.5442273,-0.290,-0.300,-0.304,0.000,122.0896402,37.5442227,0.157,0.00,1.50,-5.09,664613997892457936451903530140172288.000,29.54,25,7,4,1,17,36.0
1754066367.890816,4,4.32,21.40,1.86,0,1100000,11100,000100000,-32765,0,0,0,0,0,0,0.26,1.13,-9.39,-2.15,-1.30,0.98,0.00,0.00,0.00,122.0896917,37.5442273,-0.291,-0.298,-0.302,0.000,122.0896402,37.5442227,0.157,0.00,1.50,-5.09,0.000,30.16,25,7,4,1,17,36.0
1754066368.008720,4,4.32,21.30,1.87,0,1100000,11100,000100000,-32765,0,0,0,0,0,0,0.10,0.92,-9.50,-2.09,-1.65,1.10,0.00,0.00,0.00,122.0896917,37.5442273,-0.291,-0.297,-0.299,0.000,122.0896402,37.5442227,0.157,0.00,1.50,-5.09,-135266304.000,30.93,25,7,4,1,17,36.0
1754066368.128608,4,4.32,21.30,1.87,0,1100000,11100,000100000,-32765,0,0,0,0,0,0,-0.07,0.76,-9.60,-1.35,-1.99,0.94,0.00,0.00,0.00,122.0896917,37.5442273,-0.305,-0.298,-0.297,0.000,122.0896402,37.5442227,0.157,0.00,1.50,-5.09,136314880.000,31.62,25,7,4,1,17,36.0
1754066368.257248,4,4.32,21.30,1.87,0,1100000,11100,000100000,-32765,0,0,0,0,0,0,-0.31,0.69,-9.66,-0.44,-2.39,0.43,0.00,0.00,0.00,122.0896917,37.5442272,-0.302,-0.299,-0.296,0.000,122.0896402,37.5442227,0.157,0.00,1.50,-5.09,-0.000,32.00,25,7,4,1,17,36.0
1754066368.368635,4,4.32,21.30,1.86,0,1100000,11100,000100000,-32765,0,0,0,0,0,0,-0.83,0.78,-9.65,0.76,-2.63,-0.15,0.00,0.00,0.00,122.0896917,37.5442272,-0.276,-0.294,-0.293,0.000,122.0896402,37.5442227,0.157,0.00,1.50,-5.09,0.508,31.93,25,7,4,1,17,37.0
1754066368.490793,4,4.32,21.30,1.86,0,1100000,11100,000100000,-32765,0,0,0,0,0,0,-1.07,0.85,-9.64,0.69,-2.38,-0.02,0.00,0.00,0.00,122.0896918,37.5442272,-0.267,-0.289,-0.288,0.000,122.0896402,37.5442227,0.157,0.00,1.50,-5.09,0.000,31.85,25,7,4,1,17,37.0
1754066368.608720,4,4.32,21.40,1.86,0,1100000,11100,000100000,-32765,0,0,0,0,0,0,-1.30,0.90,-9.66,0.40,-2.23,0.49,0.00,0.00,0.00,122.0896918,37.5442272,-0.273,-0.286,-0.285,0.000,122.0896402,37.5442227,0.157,0.00,1.50,-5.09,-9295429630892703744.000,32.04,25,7,4,1,17,37.0
1754066368.728607,4,4.32,21.40,1.86,0,1100000,11100,000100000,-32765,0,0,0,0,0,0,-1.52,0.91,-9.76,0.06,-2.14,1.09,0.00,0.01,0.00,122.0896918,37.5442272,-0.278,-0.284,-0.279,0.000,122.0896402,37.5442227,0.157,0.00,1.50,-5.09,-35459249995776.000,32.69,25,7,4,1,17,37.0
1754066368.855772,4,4.32,21.40,1.86,0,1100000,11100,000100000,-32765,0,0,0,0,0,0,-1.74,0.88,-9.88,-0.32,-2.06,1.41,0.00,0.01,0.00,122.0896918,37.5442272,-0.269,-0.281,-0.273,0.000,122.0896402,37.5442227,0.157,0.00,1.50,-5.09,-623805722921148654148386816.000,33.58,25,7,4,1,17,37.0
1754066368.968702,4,4.32,21.40,1.87,0,1100000,11100,000100000,-32765,0,0,0,0,0,0,-2.07,0.75,-10.10,-0.66,-0.99,0.87,0.00,0.00,0.00,122.0896918,37.5442272,-0.271,-0.279,-0.272,0.000,122.0896402,37.5442227,0.157,0.00,1.50,-5.09,8933531975680.000,35.00,25,7,4,1,17,37.0
1754066369.090891,4,4.32,21.40,1.87,0,1100000,11100,000100000,-32765,0,0,0,0,0,0,-2.05,0.68,-10.15,-0.62,0.65,0.40,0.00,0.00,0.00,122.0896918,37.5442272,-0.257,-0.275,-0.270,0.000,122.0896402,37.5442227,0.157,0.00,1.50,-5.09,-0.000,35.00,25,7,4,1,17,37.0
1754066369.208690,4,4.32,21.40,1.87,0,1100000,11100,000100000,-32765,0,0,0,0,0,0,-1.84,0.63,-10.16,-0.49,2.52,0.00,0.00,0.00,0.00,122.0896918,37.5442272,-0.247,-0.269,-0.265,0.000,122.0896402,37.5442227,0.157,0.00,1.50,-5.09,-0.000,35.00,25,7,4,1,17,37.0
1754066369.328686,4,4.32,21.40,1.85,0,1100000,11100,000100000,-32765,0,0,0,0,0,0,-1.48,0.62,-10.15,-0.02,3.93,-0.18,0.00,0.00,0.00,122.0896918,37.5442272,-0.245,-0.264,-0.258,0.000,122.0896402,37.5442227,0.157,0.00,1.50,-5.09,-0.508,35.00,25,7,4,1,17,38.0
1754066369.457315,4,4.32,21.40,1.86,0,1100000,11100,000100000,-32765,0,0,0,0,0,0,-0.99,0.63,-10.15,0.17,5.06,-0.12,0.00,-0.01,0.00,122.0896918,37.5442272,-0.237,-0.259,-0.252,0.000,122.0896402,37.5442227,0.157,0.00,1.50,-5.09,-0.000,35.00,25,7,4,1,17,38.0
1754066369.568656,4,4.32,21.40,1.87,0,1100000,11100,000100000,-32765,0,0,0,0,0,0,0.19,0.59,-10.14,-0.49,6.41,-0.06,0.00,-0.01,0.00,122.0896918,37.5442272,-0.227,-0.253,-0.243,0.000,122.0896402,37.5442227,0.157,0.00,1.50,-5.09,-8933531975680.000,35.00,25,7,4,1,17,38.0
1754066369.690753,4,4.32,21.40,1.86,0,1100000,11100,000100000,-32765,0,0,0,0,0,0,0.82,0.50,-10.13,-1.04,6.31,0.00,0.00,-0.01,0.00,122.0896918,37.5442272,-0.243,-0.251,-0.240,0.000,122.0896402,37.5442227,0.157,0.00,1.50,-5.09,0.000,35.00,25,7,4,1,17,38.0
1754066369.808672,4,4.32,21.40,1.85,0,1100000,11100,000100000,-32765,0,0,0,0,0,0,1.34,0.34,-10.13,-1.74,4.61,0.13,0.00,-0.01,0.00,122.0896918,37.5442272,-0.268,-0.254,-0.244,0.000,122.0896402,37.5442227,0.157,0.00,1.50,-5.09,-0.000,35.00,25,7,4,1,17,38.0
1754066369.928665,4,4.32,21.40,1.86,0,1100000,11100,000100000,-32765,0,0,0,0,0,0,1.52,0.17,-10.14,-1.63,0.69,0.01,-0.01,0.00,0.00,122.0896917,37.5442272,-0.280,-0.259,-0.251,0.000,122.0896402,37.5442227,0.157,0.00,1.50,-5.09,0.000,35.00,25,7,4,1,17,38.0
1754066370.058044,4,4.32,21.40,1.76,0,1100000,11100,000100000,-32765,0,0,0,0,0,0,1.27,0.05,-10.11,-1.03,-3.29,-0.52,-0.01,0.00,0.00,122.0896917,37.5442271,-0.290,-0.265,-0.262,0.000,122.0896402,37.5442227,0.157,0.00,1.50,-5.09,-0.000,35.00,25,7,4,1,17,38.0
1754066370.169113,4,4.32,21.40,1.77,0,1100000,11100,000100000,-32765,0,0,0,0,0,0,0.00,0.00,-9.97,0.00,-7.51,-0.62,-0.01,0.01,0.00,122.0896918,37.5442271,-0.296,-0.272,-0.275,0.000,122.0896402,37.5442227,0.157,0.00,1.50,-5.09,-0.000,34.16,25,7,4,1,17,38.0
1754066370.290793,4,4.32,21.40,1.56,0,1100000,11100,000100000,-32765,0,0,0,0,0,0,-0.73,-0.01,-9.91,-0.24,-7.31,-0.44,-0.01,0.01,0.00,122.0896918,37.5442271,-0.283,-0.274,-0.283,0.000,122.0896402,37.5442227,0.157,0.00,1.50,-5.09,-0.032,33.77,25,7,4,1,17,39.0
1754066370.408520,4,4.32,21.40,1.56,0,1100000,11100,000100000,-32765,0,0,0,0,0,0,-1.37,-0.08,-9.88,-0.79,-6.05,-0.01,-0.01,0.01,0.00,122.0896918,37.5442271,-0.266,-0.272,-0.283,0.000,122.0896402,37.5442227,0.157,0.00,1.50,-5.09,-653632340742680785146737590272.000,33.54,25,7,4,1,17,39.0
1754066370.528575,4,4.32,21.40,1.57,0,1100000,11100,000100000,-32765,0,0,0,0,0,0,-1.86,-0.19,-9.90,-1.19,-4.60,0.55,-0.02,0.02,0.00,122.0896918,37.5442271,-0.260,-0.270,-0.279,0.000,122.0896402,37.5442227,0.157,0.00,1.50,-5.09,544768.000,33.73,25,7,4,1,17,39.0
1754066370.656003,4,4.32,21.40,1.57,0,1100000,11100,000100000,-32765,0,0,0,0,0,0,-2.24,-0.31,-9.96,-1.15,-3.51,0.79,-0.02,0.01,0.00,122.0896919,37.5442270,-0.274,-0.271,-0.276,0.000,122.0896402,37.5442227,0.157,0.00,1.50,-5.09,-0.000,34.12,25,7,4,1,17,39.0
1754066370.768659,4,4.32,21.40,1.60,0,1100000,11100,000100000,-32765,0,0,0,0,0,0,-2.73,-0.43,-10.06,-0.20,-1.54,0.35,-0.02,0.00,0.00,122.0896919,37.5442270,-0.274,-0.271,-0.271,0.000,122.0896402,37.5442227,0.157,0.00,1.50,-5.09,0.000,34.85,25,7,4,1,17,39.0
1754066370.890799,4,4.32,21.40,1.60,0,1100000,11100,000100000,-32765,0,0,0,0,0,0,-2.79,-0.41,-10.06,0.21,-0.27,-0.07,-0.02,0.00,0.00,122.0896919,37.5442270,-0.266,-0.270,-0.268,0.000,122.0896402,37.5442227,0.157,0.00,1.50,-5.09,-11049207714962113193512896188580364288.000,34.85,25,7,4,1,17,39.0
1754066371.008657,4,4.32,21.40,1.60,0,1100000,11100,000100000,-32765,0,0,0,0,0,0,-2.71,-0.37,-10.05,0.43,1.08,-0.27,0.00,0.00,0.00,122.0896919,37.5442270,-0.253,-0.267,-0.265,0.000,122.0896402,37.5442227,0.157,0.00,1.50,-5.09,-9359042975629312.000,34.73,25,7,4,1,17,39.0
1754066371.127527,4,4.32,21.40,1.60,0,1100000,11100,000100000,-32765,0,0,0,0,0,0,-2.50,-0.32,-10.03,0.44,2.38,-0.31,0.00,0.00,0.00,122.0896919,37.5442270,-0.237,-0.261,-0.261,0.000,122.0896402,37.5442227,0.157,0.00,1.50,-5.09,-0.000,34.58,25,7,4,1,17,39.0
1754066371.248770,4,4.32,21.30,1.62,0,1100000,11100,000100000,-32765,0,0,0,0,0,0,-2.20,-0.28,-10.04,0.42,3.25,0.08,0.00,-0.01,0.00,122.0896919,37.5442270,-0.251,-0.259,-0.256,0.000,122.0896402,37.5442227,0.157,0.00,1.50,-5.09,-0.000,34.66,25,7,4,1,17,39.0
1754066371.368656,4,4.32,21.30,1.60,0,1100000,11100,000100000,-32765,0,0,0,0,0,0,-1.48,-0.23,-10.20,0.21,3.45,0.95,0.00,0.00,0.00,122.0896919,37.5442270,-0.261,-0.259,-0.253,0.000,122.0896402,37.5442227,0.157,0.00,1.50,-5.09,2512298968886651253686272.000,35.00,25,7,4,1,17,40.0
1754066371.490764,4,4.32,21.30,1.60,0,1100000,11100,000100000,-32765,0,0,0,0,0,0,-1.22,-0.20,-10.31,0.20,2.25,1.07,0.00,0.00,0.00,122.0896919,37.5442270,-0.249,-0.257,-0.250,0.000,122.0896402,37.5442227,0.157,0.00,1.50,-5.09,36558761623552.000,35.00,25,7,4,1,17,40.0
1754066371.608663,4,4.32,21.30,1.57,0,1100000,11100,000100000,-32765,0,0,0,0,0,0,-1.09,-0.20,-10.39,0.06,1.06,0.69,0.00,0.00,0.00,122.0896918,37.5442270,-0.260,-0.258,-0.251,0.000,122.0896402,37.5442227,0.157,0.00,1.50,-5.09,142807662592.000,35.00,25,7,4,1,17,40.0
1754066371.728530,4,4.32,21.40,1.57,0,1100000,11100,000100000,-32765,0,0,0,0,0,0,-1.02,-0.21,-10.42,-0.22,0.71,0.19,0.00,0.00,0.01,122.0896918,37.5442270,-0.268,-0.260,-0.258,0.000,122.0896402,37.5442227,0.157,0.00,1.50,-5.09,9583660007044415488.000,35.00,25,7,4,1,17,40.0
1754066371.857359,4,4.32,21.40,1.57,0,1100000,11100,000100000,-32765,0,0,0,0,0,0,-0.87,-0.26,-10.43,-0.52,1.89,-0.02,0.00,-0.01,0.01,122.0896918,37.5442270,-0.280,-0.264,-0.263,0.000,122.0896402,37.5442227,0.157,0.00,1.50,-5.09,-0.000,35.00,25,7,4,1,17,40.0
1754066371.968530,4,4.32,21.40,1.57,0,1100000,11100,000100000,-32765,0,0,0,0,0,0,-0.07,-0.41,-10.40,-0.78,4.70,-0.03,0.00,-0.01,0.00,122.0896918,37.5442270,-0.252,-0.261,-0.262,0.000,122.0896402,37.5442227,0.157,0.00,1.50,-5.09,-43160967636570754662159750736642048.000,35.00,25,7,4,1,17,40.0
1754066372.090807,4,4.32,21.40,1.57,0,1100000,11100,000100000,-32765,0,0,0,0,0,0,0.33,-0.47,-10.43,-0.60,3.97,0.32,0.00,-0.01,0.00,122.0896917,37.5442270,-0.249,-0.259,-0.262,0.000,122.0896402,37.5442227,0.157,0.00,1.50,-5.09,0.000,35.00,25,7,4,1,17,40.0
1754066372.208623,4,4.32,21.40,1.57,0,1100000,11100,000100000,-32765,0,0,0,0,0,0,0.62,-0.52,-10.48,-0.46,2.43,0.55,0.00,-0.01,0.00,122.0896917,37.5442270,-0.247,-0.257,-0.259,0.000,122.0896402,37.5442227,0.157,0.00,1.50,-5.09,9208409882624.000,35.00,25,7,4,1,17,40.0
1754066372.328622,4,4.32,21.30,1.57,0,1100000,11100,000100000,-32765,0,0,0,0,0,0,0.71,-0.55,-10.56,-0.25,0.42,0.99,0.00,-0.01,0.00,122.0896917,37.5442270,-0.264,-0.258,-0.258,0.000,122.0896402,37.5442227,0.157,0.00,1.50,-5.09,161996059828360309410627584.000,35.00,25,7,4,1,17,41.0
1754066372.455786,4,4.32,21.30,1.57,0,1100000,11100,000100000,-32765,0,0,0,0,0,0,0.62,-0.54,-10.69,0.19,-1.32,1.35,0.00,0.00,0.00,122.0896917,37.5442270,-0.259,-0.258,-0.254,0.000,122.0896402,37.5442227,0.157,0.00,1.50,-5.09,632797108704532458635264.000,35.00,25,7,4,1,17,41.0
1754066372.568631,4,4.32,21.30,1.57,0,1100000,11100,000100000,-32765,0,0,0,0,0,0,0.15,-0.32,-10.96,1.58,-2.72,1.28,0.00,0.00,0.00,122.0896917,37.5442270,-0.263,-0.259,-0.256,0.000,122.0896402,37.5442227,0.157,0.00,1.50,-5.09,-0.000,35.00,25,7,4,1,17,41.0
1754066372.690785,4,4.32,21.30,1.57,0,1100000,11100,000100000,-32765,0,0,0,0,0,0,-0.09,-0.14,-11.05,1.82,-2.49,0.73,0.01,0.00,0.00,122.0896917,37.5442270,-0.270,-0.261,-0.261,0.000,122.0896402,37.5442227,0.157,0.00,1.50,-5.09,0.000,35.00,25,7,4,1,17,41.0
1754066372.808962,4,4.32,21.30,1.57,0,1100000,11100,000100000,-32765,0,0,0,0,0,0,-0.31,0.00,-11.09,1.32,-2.13,0.18,0.01,0.00,0.00,122.0896917,37.5442270,-0.257,-0.261,-0.263,0.000,122.0896402,37.5442227,0.157,0.00,1.50,-5.09,-0.000,35.00,25,7,4,1,17,41.0
1754066372.928515,4,4.32,21.30,1.59,0,1100000,11100,000100000,-32765,0,0,0,0,0,0,-0.51,0.07,-11.07,0.59,-1.87,-0.11,0.01,0.00,0.00,122.0896917,37.5442270,-0.272,-0.263,-0.264,0.000,122.0896402,37.5442227,0.157,0.00,1.50,-5.09,669319516920505123990259292438528.000,35.00,25,7,4,1,17,41.0
1754066373.056269,4,4.32,21.30,1.59,0,1100000,11100,000100000,-32765,0,0,0,0,0,0,-0.72,0.09,-11.07,0.11,-2.22,0.13,0.01,0.00,0.00,122.0896917,37.5442270,-0.264,-0.263,-0.265,0.000,122.0896402,37.5442227,0.157,0.00,1.50,-5.09,38959523483674573012992.000,35.00,25,7,4,1,17,41.0
1754066373.168598,4,4.32,21.40,1.57,0,1100000,11100,000100000,-32765,0,0,0,0,0,0,-1.22,-0.02,-11.23,-1.02,-2.39,1.21,0.00,0.00,0.00,122.0896917,37.5442271,-0.289,-0.268,-0.271,0.000,122.0896402,37.5442227,0.157,0.00,1.50,-5.09,-2112.000,35.00,25,7,4,1,17,41.0
1754066373.290776,4,4.32,21.40,1.57,0,1100000,11100,000100000,-32765,0,0,0,0,0,0,-1.40,-0.15,-11.37,-1.24,-1.42,1.43,0.00,0.00,0.00,122.0896917,37.5442271,-0.303,-0.275,-0.277,0.000,122.0896402,37.5442227,0.157,0.00,1.50,-5.09,0.000,35.00,25,7,4,1,17,42.0
1754066373.408641,4,4.32,21.30,1.57,0,1100000,11100,000100000,-32765,0,0,0,0,0,0,-1.45,-0.25,-11.49,-0.92,-0.13,1.21,0.00,0.00,0.00,122.0896917,37.5442271,-0.288,-0.278,-0.283,0.000,122.0896402,37.5442227,0.157,0.00,1.50,-5.09,44196830859848452774051584754321457152.000,35.00,25,7,4,1,17,42.0
1754066373.528375,4,4.32,21.30,1.58,0,1100000,11100,000100000,-32765,0,0,0,0,0,0,-1.36,-0.30,-11.58,-0.24,1.23,0.75,0.00,0.00,0.00,122.0896917,37.5442271,-0.289,-0.280,-0.287,0.000,122.0896402,37.5442227,0.157,0.00,1.50,-5.09,-0.000,35.00,25,7,4,1,17,42.0
1754066373.657071,4,4.32,21.30,1.58,0,1100000,11100,000100000,-32765,0,0,0,0,0,0,-1.17,-0.25,-11.64,0.67,2.12,0.51,0.00,-0.01,0.00,122.0896916,37.5442271,-0.297,-0.283,-0.293,0.000,122.0896402,37.5442227,0.157,0.00,1.50,-5.09,44196830859848452774051584754321457152.000,35.00,25,7,4,1,17,42.0
1754066373.768580,4,4.32,21.30,1.57,0,1100000,11100,000100000,-32765,0,0,0,0,0,0,-0.72,0.07,-11.78,2.18,1.91,0.83,0.01,-0.01,0.00,122.0896916,37.5442271,-0.285,-0.284,-0.292,0.000,122.0896402,37.5442227,0.157,0.00,1.50,-5.09,2614529362970723140586950361088.000,35.00,25,7,4,1,17,42.0
1754066373.890747,4,4.32,21.30,1.57,0,1100000,11100,000100000,-32765,0,0,0,0,0,0,-0.61,0.31,-11.90,2.41,0.79,1.28,0.01,-0.01,0.00,122.0896916,37.5442271,-0.275,-0.282,-0.287,0.000,122.0896402,37.5442227,0.157,0.00,1.50,-5.09,-0.000,35.00,25,7,4,1,17,42.0
1754066374.008575,4,4.32,21.30,1.57,0,1100000,11100,000100000,-32765,0,0,0,0,0,0,-0.62,0.54,-12.06,2.29,-0.21,1.67,0.01,0.00,0.00,122.0896916,37.5442271,-0.285,-0.283,-0.286,0.000,122.0896402,37.5442227,0.157,0.00,1.50,-5.09,-2699994366438110366835858091194449920.000,35.00,25,7,4,1,17,42.0
1754066374.128548,4,4.32,21.30,1.57,0,1100000,11100,000100000,-32765,0,0,0,0,0,0,-0.69,0.73,-12.23,1.88,-0.84,1.70,0.02,0.00,0.00,122.0896916,37.5442271,-0.275,-0.281,-0.283,0.000,122.0896402,37.5442227,0.157,0.00,1.50,-5.09,2398076729582241710080.000,35.00,25,7,4,1,17,42.0
1754066374.258196,4,4.32,21.30,1.57,0,1100000,11100,000100000,-32765,0,0,0,0,0,0,-0.82,0.87,-12.37,1.23,-1.43,1.09,0.02,0.00,0.00,122.0896916,37.5442271,-0.266,-0.278,-0.277,0.000,122.0896402,37.5442227,0.157,0.00,1.50,-5.09,-163526927429441592793074713493504.000,35.00,25,7,4,1,17,42.0
1754066374.368603,4,4.32,21.30,1.57,0,1100000,11100,000100000,-32765,0,0,0,0,0,0,-1.26,1.01,-12.41,0.57,-2.74,-0.02,0.01,0.00,0.00,122.0896915,37.5442272,-0.265,-0.275,-0.273,0.000,122.0896402,37.5442227,0.157,0.00,1.50,-5.09,-0.000,35.00,25,7,4,1,17,43.0
1754066374.490704,4,4.32,21.30,1.57,0,1100000,11100,000100000,-32765,0,0,0,0,0,0,-1.58,1.08,-12.40,0.72,-3.22,0.00,0.01,0.00,0.00,122.0896915,37.5442272,-0.272,-0.275,-0.273,0.000,122.0896402,37.5442227,0.157,0.00,1.50,-5.09,541065216.000,35.00,25,7,4,1,17,43.0
1754066374.608526,4,4.32,21.40,1.57,0,1100000,11100,000100000,-32765,0,0,0,0,0,0,-1.87,1.15,-12.39,0.70,-2.63,0.00,0.01,0.00,0.00,122.0896915,37.5442272,-0.277,-0.275,-0.271,0.000,122.0896402,37.5442227,0.157,0.00,1.50,-5.09,0.000,35.00,25,7,4,1,17,43.0
1754066374.728493,4,4.32,21.30,1.57,0,1100000,11100,000100000,-32765,0,0,0,0,0,0,-1.97,1.19,-12.39,0.35,-0.41,0.08,0.01,0.00,0.00,122.0896915,37.5442272,-0.268,-0.274,-0.269,0.000,122.0896402,37.5442227,0.157,0.00,1.50,-5.09,-633825300114114700748351602688.000,35.00,25,7,4,1,17,43.0
1754066374.855754,4,4.32,21.30,1.57,0,1100000,11100,000100000,-32765,0,0,0,0,0,0,-1.80,1.21,-12.41,0.07,2.36,0.06,0.01,0.00,0.00,122.0896915,37.5442272,-0.280,-0.275,-0.272,0.000,122.0896402,37.5442227,0.157,0.00,1.50,-5.09,-9444732965739290427392.000,35.00,25,7,4,1,17,43.0
1754066374.968590,4,4.32,21.30,1.57,0,1100000,11100,000100000,-32765,0,0,0,0,0,0,-1.09,1.26,-12.48,0.39,3.59,0.36,0.01,0.00,0.00,122.0896915,37.5442273,-0.263,-0.273,-0.272,0.000,122.0896402,37.5442227,0.157,0.00,1.50,-5.09,-0.000,35.00,25,7,4,1,17,43.0
1754066375.090795,4,4.32,21.30,1.57,0,1100000,11100,000100000,-32765,0,0,0,0,0,0,-0.81,1.29,-12.52,0.22,2.57,0.42,0.02,-0.01,0.00,122.0896915,37.5442273,-0.258,-0.270,-0.269,0.000,122.0896402,37.5442227,0.157,0.00,1.50,-5.09,-0.000,35.00,25,7,4,1,17,43.0
1754066375.208553,4,4.32,21.30,1.57,0,1100000,11100,000100000,-32765,0,0,0,0,0,0,-0.66,1.30,-12.58,0.07,1.18,0.58,0.02,-0.01,0.00,122.0896914,37.5442273,-0.266,-0.269,-0.267,0.000,122.0896402,37.5442227,0.157,0.00,1.50,-5.09,-0.000,35.00,25,7,4,1,17,43.0
1754066375.328543,4,4.32,21.40,1.56,0,1100000,11100,000100000,-32765,0,0,0,0,0,0,-0.63,1.29,-12.65,-0.06,0.07,0.68,0.02,-0.01,0.00,122.0896914,37.5442273,-0.260,-0.267,-0.266,0.000,122.0896402,37.5442227,0.157,0.00,1.50,-5.09,-0.000,35.00,25,7,4,1,17,44.0
1754066375.457289,4,4.32,21.40,1.56,0,1100000,11100,000100000,-32765,0,0,0,0,0,0,-0.66,1.30,-12.71,0.16,-0.34,0.59,0.02,-0.01,0.00,122.0896914,37.5442273,-0.274,-0.269,-0.264,0.000,122.0896402,37.5442227,0.157,0.00,1.50,-5.09,-0.000,35.00,25,7,4,1,17,44.0
1754066375.568410,4,4.32,21.30,1.57,0,1100000,11100,000100000,-32765,0,0,0,0,0,0,-0.49,1.50,-12.77,1.61,2.03,0.02,0.03,-0.01,0.00,122.0896914,37.5442273,-0.282,-0.271,-0.268,0.000,122.0896402,37.5442227,0.157,0.00,1.50,-5.09,-10592285591411048362202212511608995840.000,35.00,25,7,4,1,17,44.0
1754066375.690761,4,4.32,21.30,1.57,0,1100000,11100,000100000,-32765,0,0,0,0,0,0,-0.17,1.71,-12.73,2.22,3.54,-0.53,0.03,-0.01,0.00,122.0896914,37.5442273,-0.272,-0.271,-0.271,0.000,122.0896402,37.5442227,0.157,0.00,1.50,-5.09,35046933135360.000,35.00,25,7,4,1,17,44.0
1754066375.808608,4,4.32,21.30,1.56,0,1100000,11100,000100000,-32765,0,0,0,0,0,0,0.20,1.96,-12.66,2.48,3.80,-0.80,0.03,-0.01,0.00,122.0896913,37.5442273,-0.277,-0.273,-0.273,0.000,122.0896402,37.5442227,0.157,0.00,1.50,-5.09,-0.000,35.00,25,7,4,1,17,44.0
1754066375.928449,4,4.32,21.30,1.54,0,1100000,11100,000100000,-32765,0,0,0,0,0,0,0.52,2.20,-12.56,2.33,2.88,-0.94,0.03,-0.01,0.01,122.0896913,37.5442273,-0.287,-0.276,-0.279,0.000,122.0896402,37.5442227,0.157,0.00,1.50,-5.09,-2122317824.000,35.00,25,7,4,1,17,44.0
1754066376.121122,4,4.32,21.30,1.54,0,1100000,11100,000100000,-32765,0,0,0,0,0,0,0.66,2.41,-12.48,1.97,0.80,-0.67,0.03,-0.01,0.01,122.0896913,37.5442275,-0.289,-0.278,-0.281,0.000,122.0896402,37.5442227,0.157,0.00,1.50,-5.09,0.000,35.00,25,7,4,1,17,44.0
1754066376.167383,4,4.32,21.30,1.54,0,1100000,11100,000100000,-32765,0,0,0,0,0,0,0.36,2.70,-12.46,1.18,-2.34,0.24,0.03,-0.01,0.01,122.0896912,37.5442275,-0.281,-0.279,-0.281,0.000,122.0896402,37.5442227,0.157,0.00,1.50,-5.09,0.492,35.00,25,7,4,1,17,44.0
1754066376.290784,4,4.32,21.30,1.54,0,1100000,11100,000100000,-32765,0,0,0,0,0,0,0.14,2.78,-12.50,0.75,-2.02,0.48,0.03,-0.01,0.01,122.0896912,37.5442276,-0.284,-0.280,-0.284,0.000,122.0896402,37.5442227,0.157,0.00,1.50,-5.09,-10426132091937933878089236629073952768.000,35.00,25,7,4,1,17,45.0
1754066376.408484,4,4.32,21.30,1.55,0,1100000,11100,000100000,-32765,0,0,0,0,0,0,0.02,2.82,-12.55,0.38,-0.77,0.38,0.03,-0.01,0.01,122.0896911,37.5442276,-0.292,-0.282,-0.287,0.000,122.0896402,37.5442227,0.157,0.00,1.50,-5.09,-9043228051759955968.000,35.00,25,7,4,1,17,45.0
1754066376.528448,4,4.32,21.30,1.54,0,1100000,11100,000100000,-32765,0,0,0,0,0,0,0.05,2.85,-12.55,0.24,0.61,-0.04,0.00,-0.01,0.00,122.0896911,37.5442276,-0.280,-0.282,-0.285,0.000,122.0896402,37.5442227,0.157,0.00,1.50,-5.09,-514048.000,35.00,25,7,4,1,17,45.0
1754066376.656066,4,4.32,21.30,1.54,0,1100000,11100,000100000,-32765,0,0,0,0,0,0,0.17,2.90,-12.51,0.63,1.25,-0.45,0.00,-0.01,0.00,122.0896911,37.5442276,-0.264,-0.278,-0.280,0.000,122.0896402,37.5442227,0.157,0.00,1.50,-5.09,-0.000,35.00,25,7,4,1,17,45.0
1754066376.768524,4,4.32,21.40,1.54,0,1100000,11100,000100000,-32765,0,0,0,0,0,0,0.31,3.24,-12.37,2.38,0.01,-0.81,0.00,0.00,0.00,122.0896911,37.5442276,-0.257,-0.274,-0.275,0.000,122.0896402,37.5442227,0.157,0.00,1.50,-5.09,-0.000,35.00,25,7,4,1,17,45.0
1754066376.890730,4,4.32,21.40,1.54,0,1100000,11100,000100000,-32765,0,0,0,0,0,0,0.21,3.55,-12.29,3.25,-1.36,-0.63,0.00,0.00,0.00,122.0896911,37.5442276,-0.253,-0.270,-0.269,0.000,122.0896402,37.5442227,0.157,0.00,1.50,-5.09,-0.000,35.00,25,7,4,1,17,45.0
1754066377.008561,4,4.32,21.30,1.60,0,1100000,11100,000100000,-32765,0,0,0,0,0,0,0.00,3.92,-12.24,3.73,-2.36,-0.47,0.01,0.00,0.00,122.0896910,37.5442276,-0.263,-0.268,-0.263,0.000,122.0896402,37.5442227,0.157,0.00,1.50,-5.09,153504564871387154087491403776.000,35.00,25,7,4,1,17,45.0
1754066377.128490,4,4.32,21.30,1.55,0,1100000,11100,000100000,-32765,0,0,0,0,0,0,-0.25,4.31,-12.20,3.82,-2.69,-0.38,0.02,0.00,0.00,122.0896910,37.5442276,-0.276,-0.270,-0.263,0.000,122.0896402,37.5442227,0.157,0.00,1.50,-5.09,0.000,35.00,25,7,4,1,17,45.0
1754066377.255760,4,4.32,21.30,1.55,0,1100000,11100,000100000,-32765,0,0,0,0,0,0,-0.49,4.66,-12.17,3.45,-2.34,-0.31,0.02,0.00,0.01,122.0896910,37.5442277,-0.261,-0.268,-0.262,0.000,122.0896402,37.5442227,0.157,0.00,1.50,-5.09,0.000,35.00,25,7,4,1,17,45.0
1754066377.368529,4,4.32,21.30,1.58,0,1100000,11100,000100000,-32765,0,0,0,0,0,0,-0.72,5.18,-12.10,1.87,-0.42,-0.38,0.02,0.00,0.01,122.0896910,37.5442277,-0.271,-0.269,-0.265,0.000,122.0896402,37.5442227,0.157,0.00,1.50,-5.09,-0.000,35.00,25,7,4,1,17,46.0
1754066377.491106,4,4.32,21.30,1.58,0,1100000,11100,000100000,-32765,0,0,0,0,0,0,-0.71,5.30,-12.06,0.99,0.23,-0.30,0.02,0.00,0.01,122.0896910,37.5442278,-0.277,-0.270,-0.270,0.000,122.0896402,37.5442227,0.157,0.00,1.50,-5.09,499712.000,35.00,25,7,4,1,17,46.0
1754066377.608544,4,4.32,21.30,1.58,0,1100000,11100,000100000,-32765,0,0,0,0,0,0,-0.66,5.35,-12.05,0.25,0.52,-0.18,0.01,0.00,0.01,122.0896910,37.5442278,-0.287,-0.274,-0.274,0.000,122.0896402,37.5442227,0.157,0.00,1.50,-5.09,499712.000,35.00,25,7,4,1,17,46.0
1754066377.728419,4,4.32,21.30,1.59,0,1100000,11100,000100000,-32765,0,0,0,0,0,0,-0.59,5.33,-12.03,-0.21,0.64,-0.16,0.00,0.00,0.00,122.0896910,37.5442278,-0.276,-0.274,-0.274,0.000,122.0896402,37.5442227,0.157,0.00,1.50,-5.09,499712.000,35.00,25,7,4,1,17,46.0
1754066377.857364,4,4.32,21.30,1.59,0,1100000,11100,000100000,-32765,0,0,0,0,0,0,-0.52,5.29,-12.01,-0.44,0.77,-0.18,0.00,0.00,0.00,122.0896910,37.5442278,-0.267,-0.273,-0.276,0.000,122.0896402,37.5442227,0.157,0.00,1.50,-5.09,499712.000,35.00,25,7,4,1,17,46.0
1754066377.968496,4,4.32,21.30,1.59,0,1100000,11100,000100000,-32765,0,0,0,0,0,0,-0.35,5.22,-11.96,-0.19,0.68,-0.29,-0.01,0.00,0.00,122.0896910,37.5442278,-0.268,-0.272,-0.275,0.000,122.0896402,37.5442227,0.157,0.00,1.50,-5.09,8584986789675008.000,35.00,25,7,4,1,17,46.0
1754066378.090822,4,4.32,21.30,1.59,0,1100000,11100,000100000,-32765,0,0,0,0,0,0,-0.32,5.24,-11.94,0.22,0.11,-0.11,-0.01,0.00,0.00,122.0896910,37.5442278,-0.262,-0.270,-0.272,0.000,122.0896402,37.5442227,0.157,0.00,1.50,-5.09,127926272.000,35.00,25,7,4,1,17,46.0
1754066378.208493,4,4.32,21.30,1.54,0,1100000,11100,000100000,-32765,0,0,0,0,0,0,-0.36,5.29,-11.94,0.58,-0.54,0.03,-0.01,0.00,0.00,122.0896909,37.5442277,-0.269,-0.270,-0.268,0.000,122.0896402,37.5442227,0.157,0.00,1.50,-5.09,499712.000,35.00,25,7,4,1,17,46.0
1754066378.328469,4,4.32,21.40,1.54,0,1100000,11100,000100000,-32765,0,0,0,0,0,0,-0.45,5.36,-11.95,0.72,-0.93,0.16,-0.01,0.00,0.00,122.0896909,37.5442277,-0.256,-0.267,-0.264,0.000,122.0896402,37.5442227,0.157,0.00,1.50,-5.09,499712.000,35.00,25,7,4,1,17,47.0
1754066378.457864,4,4.32,21.40,1.54,0,1100000,11100,000100000,-32765,0,0,0,0,0,0,-0.53,5.42,-11.97,0.54,-0.73,0.13,-0.01,0.00,0.00,122.0896909,37.5442277,-0.271,-0.268,-0.265,0.000,122.0896402,37.5442227,0.157,0.00,1.50,-5.09,499712.000,35.00,25,7,4,1,17,47.0
1754066378.568533,4,4.32,21.30,1.54,0,1100000,11100,000100000,-32765,0,0,0,0,0,0,-0.49,5.42,-11.94,-0.41,0.77,-0.27,-0.01,0.00,0.00,122.0896909,37.5442277,-0.271,-0.268,-0.266,0.000,122.0896402,37.5442227,0.157,0.00,1.50,-5.09,499712.000,35.00,25,7,4,1,17,47.0
1754066378.690753,4,4.32,21.30,1.54,0,1100000,11100,000100000,-32765,0,0,0,0,0,0,-0.39,5.36,-11.91,-0.69,1.04,-0.23,-0.01,0.00,0.00,122.0896909,37.5442277,-0.257,-0.266,-0.265,0.000,122.0896402,37.5442227,0.157,0.00,1.50,-5.09,499712.000,35.00,25,7,4,1,17,47.0
1754066378.808626,4,4.32,21.30,1.55,0,1100000,11100,000100000,-32765,0,0,0,0,0,0,-0.31,5.28,-11.90,-0.75,0.61,-0.02,0.00,0.00,0.00,122.0896909,37.5442277,-0.266,-0.266,-0.264,0.000,122.0896402,37.5442227,0.157,0.00,1.50,-5.09,499712.000,35.00,25,7,4,1,17,47.0
1754066378.928323,4,4.32,21.30,1.55,0,1100000,11100,000100000,-32765,0,0,0,0,0,0,-0.31,5.21,-11.92,-0.64,-0.22,0.27,0.00,0.00,0.00,122.0896909,37.5442277,-0.247,-0.262,-0.262,0.000,122.0896402,37.5442227,0.157,0.00,1.50,-5.09,2250502776992565297152.000,35.00,25,7,4,1,17,47.0
1754066379.056399,4,4.32,21.30,1.54,0,1100000,11100,000100000,-32765,0,0,0,0,0,0,-0.40,5.15,-11.96,-0.47,-1.08,0.51,0.00,0.00,0.00,122.0896909,37.5442277,-0.264,-0.262,-0.261,0.000,122.0896402,37.5442227,0.157,0.00,1.50,-5.09,-0.000,35.00,25,7,4,1,17,47.0
1754066379.168530,4,4.32,21.30,1.54,0,1100000,11100,000100000,-32765,0,0,0,0,0,0,-0.73,5.05,-12.07,-0.49,-1.60,0.53,0.00,0.00,0.01,122.0896909,37.5442277,-0.281,-0.266,-0.263,0.000,122.0896402,37.5442227,0.157,0.00,1.50,-5.09,-576128710910096716070912.000,35.00,25,7,4,1,17,47.0
1754066379.288750,4,4.32,21.30,1.54,0,1100000,11100,000100000,-32765,0,0,0,0,0,0,-0.86,4.98,-12.12,-0.74,-1.09,0.43,0.00,0.00,0.01,122.0896909,37.5442278,-0.271,-0.267,-0.266,0.000,122.0896402,37.5442227,0.157,0.00,1.50,-5.09,0.000,35.00,25,7,4,1,17,48.0
1754066379.408500,4,4.32,21.30,1.54,0,1100000,11100,000100000,-32765,0,0,0,0,0,0,-0.91,4.87,-12.15,-1.02,-0.28,0.24,0.00,0.00,0.01,122.0896909,37.5442278,-0.257,-0.265,-0.264,0.000,122.0896402,37.5442227,0.157,0.00,1.50,-5.09,9705449907997381355209133916160.000,35.00,25,7,4,1,17,48.0
1754066379.528421,4,4.22,21.30,1.54,0,1100000,11100,000100000,-32765,0,0,0,0,0,0,-0.87,4.76,-12.16,-1.18,0.57,0.08,0.00,0.00,0.01,122.0896909,37.5442278,-0.266,-0.265,-0.268,0.000,122.0896402,37.5442227,0.157,0.00,1.50,-5.09,-2055208960.000,35.00,25,7,4,1,17,48.0
1754066379.657148,4,4.22,21.30,1.54,0,1100000,11100,000100000,-32765,0,0,0,0,0,0,-0.77,4.62,-12.16,-1.42,1.20,-0.01,0.00,0.00,0.01,122.0896909,37.5442278,-0.253,-0.263,-0.266,0.000,122.0896402,37.5442227,0.157,0.00,1.50,-5.09,0.030,35.00,25,7,4,1,17,48.0
1754066379.768495,4,4.22,21.40,1.55,0,1100000,11100,000100000,-32765,0,0,0,0,0,0,-0.45,4.31,-12.13,-1.54,1.70,-0.19,0.00,0.00,0.00,122.0896909,37.5442278,-0.225,-0.255,-0.255,0.000,122.0896402,37.5442227,0.157,0.00,1.50,-5.09,0.000,35.00,25,7,4,1,17,48.0
1754066379.890743,4,4.22,21.40,1.55,0,1100000,11100,000100000,-32765,0,0,0,0,0,0,-0.28,4.16,-12.10,-1.48,1.74,-0.26,0.00,0.00,0.00,122.0896909,37.5442278,-0.229,-0.250,-0.246,0.000,122.0896402,37.5442227,0.157,0.00,1.50,-5.09,-0.000,35.00,25,7,4,1,17,48.0
1754066380.008516,4,4.22,21.40,1.54,0,1100000,11100,000100000,-32765,0,0,0,0,0,0,-0.13,4.04,-12.07,-1.21,1.33,-0.27,0.00,0.00,0.00,122.0896909,37.5442278,-0.231,-0.246,-0.241,0.000,122.0896402,37.5442227,0.157,0.00,1.50,-5.09,0.000,35.00,25,7,4,1,17,48.0
1754066380.128402,4,4.22,21.40,1.54,0,1100000,11100,000100000,-32765,0,0,0,0,0,0,-0.05,3.94,-12.05,-0.85,0.57,-0.21,0.00,0.00,0.01,122.0896909,37.5442278,-0.220,-0.241,-0.232,0.000,122.0896402,37.5442227,0.157,0.00,1.50,-5.09,8725724278030336.000,35.00,25,7,4,1,17,48.0
1754066380.257406,4,4.22,21.40,1.54,0,1100000,11100,000100000,-32765,0,0,0,0,0,0,-0.07,3.89,-12.03,-0.44,-0.47,-0.21,0.00,0.00,0.01,122.0896909,37.5442278,-0.225,-0.238,-0.226,0.000,122.0896402,37.5442227,0.157,0.00,1.50,-5.09,-0.000,35.00,25,7,4,1,17,48.0
1754066380.368472,4,4.22,21.30,1.54,0,1100000,11100,000100000,-32765,0,0,0,0,0,0,-0.39,3.86,-12.00,-0.10,-1.98,-0.13,0.00,0.00,0.01,122.0896909,37.5442278,-0.220,-0.234,-0.225,0.000,122.0896402,37.5442227,0.157,0.00,1.50,-5.09,-0.000,35.00,25,7,4,1,17,49.0
1754066380.490661,4,4.22,21.30,1.54,0,1100000,11100,000100000,-32765,0,0,0,0,0,0,-0.57,3.83,-11.98,-0.37,-1.70,-0.16,0.00,0.00,0.00,122.0896909,37.5442278,-0.218,-0.231,-0.223,0.000,122.0896402,37.5442227,0.157,0.00,1.50,-5.09,-0.000,35.00,25,7,4,1,17,49.0
1754066380.608439,4,4.22,21.40,1.55,0,1100000,11100,000100000,-32765,0,0,0,0,0,0,-0.68,3.76,-11.96,-0.88,-0.89,-0.13,0.00,0.00,0.00,122.0896909,37.5442277,-0.217,-0.228,-0.220,0.000,122.0896402,37.5442227,0.157,0.00,1.50,-5.09,-149906801632214017663565824.000,35.00,25,7,4,1,17,49.0
1754066380.728345,4,4.22,21.40,1.55,0,1100000,11100,000100000,-32765,0,0,0,0,0,0,-0.70,3.64,-11.95,-1.36,-0.15,-0.10,-0.01,0.00,0.00,122.0896909,37.5442277,-0.223,-0.227,-0.221,0.000,122.0896402,37.5442227,0.157,0.00,1.50,-5.09,8355053568.000,35.00,25,7,4,1,17,49.0
1754066380.855730,4,4.12,21.40,1.55,0,1100000,11100,000100000,-32765,0,0,0,0,0,0,-0.71,3.48,-11.95,-1.58,-0.09,0.03,-0.01,0.00,0.00,122.0896909,37.5442277,-0.214,-0.224,-0.218,0.000,122.0896402,37.5442227,0.157,0.00,1.50,-5.09,-8159232.000,35.00,25,7,4,1,17,49.0
1754066380.968484,4,4.12,21.40,1.54,0,1100000,11100,000100000,-32765,0,0,0,0,0,0,-0.91,3.21,-11.98,-1.01,-1.62,0.28,-0.01,0.00,0.00,122.0896909,37.5442277,-0.228,-0.225,-0.220,0.000,122.0896402,37.5442227,0.157,0.00,1.50,-5.09,-0.000,35.00,25,7,4,1,17,49.0
1754066381.163417,4,4.12,21.40,1.54,0,1100000,11100,000100000,-32765,0,0,0,0,0,0,-1.12,3.15,-11.99,-0.41,-2.12,0.14,-0.01,0.00,0.00,122.0896909,37.5442277,-0.224,-0.225,-0.221,0.000,122.0896402,37.5442227,0.157,0.00,1.50,-5.09,-536870912000.000,35.00,25,7,4,1,17,49.0
1754066381.207034,4,4.12,21.40,1.54,0,1100000,11100,000100000,-32765,0,0,0,0,0,0,-1.30,3.16,-11.99,0.20,-1.71,-0.12,-0.01,0.00,0.01,122.0896909,37.5442277,-0.222,-0.224,-0.222,0.000,122.0896402,37.5442227,0.157,0.00,1.50,-5.09,-524288000.000,35.00,25,7,4,1,17,49.0
1754066381.328410,4,4.12,21.30,1.54,0,1100000,11100,000100000,-32765,0,0,0,0,0,0,-1.40,3.21,-11.95,0.54,-0.68,-0.46,0.00,0.00,0.01,122.0896910,37.5442277,-0.213,-0.222,-0.220,0.000,122.0896402,37.5442227,0.157,0.00,1.50,-5.09,-0.000,35.00,25,7,4,1,17,50.0
1754066381.456054,4,4.12,21.30,1.54,0,1100000,11100,000100000,-32765,0,0,0,0,0,0,-1.36,3.27,-11.88,0.57,0.64,-0.72,0.00,0.00,0.01,122.0896910,37.5442277,-0.213,-0.220,-0.220,0.000,122.0896402,37.5442227,0.157,0.00,1.50,-5.09,2475880078570760549798248448000.000,35.00,25,7,4,1,17,50.0
1754066381.568475,4,4.12,21.40,1.55,0,1100000,11100,000100000,-32765,0,0,0,0,0,0,-0.99,3.35,-11.76,0.11,2.20,-0.45,0.00,0.00,0.01,122.0896910,37.5442277,-0.202,-0.217,-0.215,0.000,122.0896402,37.5442227,0.157,0.00,1.50,-5.09,0.000,35.00,25,7,4,1,17,50.0
1754066381.690710,4,4.12,21.40,1.55,0,1100000,11100,000100000,-32765,0,0,0,0,0,0,-0.79,3.35,-11.75,-0.08,1.84,-0.02,0.00,0.00,0.01,122.0896910,37.5442277,-0.211,-0.215,-0.212,0.000,122.0896402,37.5442227,0.157,0.00,1.50,-5.09,0.000,35.00,25,7,4,1,17,50.0
1754066381.808458,4,4.12,21.30,1.54,0,1100000,11100,000100000,-32765,0,0,0,0,0,0,-0.67,3.33,-11.79,-0.11,1.01,0.49,0.00,0.00,0.00,122.0896910,37.5442277,-0.211,-0.215,-0.210,0.000,122.0896402,37.5442227,0.157,0.00,1.50,-5.09,8000.000,35.00,25,7,4,1,17,50.0
1754066381.928343,4,4.12,21.30,1.57,0,1100000,11100,000100000,-32765,0,0,0,0,0,0,-0.63,3.31,-11.85,-0.20,0.30,0.70,0.00,0.00,0.00,122.0896910,37.5442276,-0.212,-0.214,-0.210,0.000,122.0896402,37.5442227,0.157,0.00,1.50,-5.09,549755813888000.000,35.00,25,7,4,1,17,50.0
1754066382.057083,4,4.12,21.30,1.57,0,1100000,11100,000100000,-32765,0,0,0,0,0,0,-0.64,3.29,-11.93,-0.08,-0.07,0.73,0.00,0.00,0.00,122.0896910,37.5442276,-0.212,-0.214,-0.210,0.000,122.0896402,37.5442227,0.157,0.00,1.50,-5.09,36893488147419103232000.000,35.00,25,7,4,1,17,50.0
1754066382.168418,4,4.12,21.40,1.54,0,1100000,11100,000100000,-32765,0,0,0,0,0,0,-0.57,3.32,-11.96,0.37,0.70,-0.33,0.00,0.00,0.01,122.0896910,37.5442276,-0.208,-0.213,-0.211,0.000,122.0896402,37.5442227,0.157,0.00,1.50,-5.09,2097152000.000,35.00,25,7,4,1,17,50.0
1754066382.290683,4,4.12,21.40,1.54,0,1100000,11100,000100000,-32765,0,0,0,0,0,0,-0.50,3.38,-11.90,0.56,0.56,-0.67,0.00,0.00,0.01,122.0896910,37.5442276,-0.203,-0.211,-0.209,0.000,122.0896402,37.5442227,0.157,0.00,1.50,-5.09,0.000,35.00,25,7,4,1,17,51.0
1754066382.408388,4,4.12,21.40,1.54,0,1100000,11100,000100000,-32765,0,0,0,0,0,0,-0.46,3.41,-11.81,0.19,0.28,-0.96,0.00,0.00,0.01,122.0896910,37.5442276,-0.199,-0.208,-0.207,0.000,122.0896402,37.5442227,0.157,0.00,1.50,-5.09,0.000,35.00,25,7,4,1,17,51.0
1754066382.528401,4,4.12,21.40,1.56,0,1100000,11100,000100000,-32765,0,0,0,0,0,0,-0.47,3.41,-11.71,-0.17,-0.42,-0.85,0.00,0.00,0.02,122.0896910,37.5442276,-0.202,-0.207,-0.205,0.000,122.0896402,37.5442227,0.157,0.00,1.50,-5.09,0.000,35.00,25,7,4,1,17,51.0
1754066382.658147,4,4.12,21.40,1.55,0,1100000,11100,000100000,-32765,0,0,0,0,0,0,-0.56,3.36,-11.66,-0.63,-0.99,-0.38,0.00,0.00,0.01,122.0896910,37.5442276,-0.211,-0.208,-0.204,0.000,122.0896402,37.5442227,0.157,0.00,1.50,-5.09,0.000,35.00,25,7,4,1,17,51.0
1754066382.768415,4,4.12,21.40,1.56,0,1100000,11100,000100000,-32765,0,0,0,0,0,0,-0.77,3.19,-11.65,-0.79,-1.03,0.19,-0.01,0.01,0.01,122.0896911,37.5442276,-0.198,-0.206,-0.202,0.000,122.0896402,37.5442227,0.157,0.00,1.50,-5.09,-0.000,35.00,25,7,4,1,17,51.0
1754066382.890673,4,4.12,21.40,1.56,0,1100000,11100,000100000,-32765,0,0,0,0,0,0,-0.85,3.13,-11.66,-0.51,-0.66,0.13,-0.01,0.01,0.00,122.0896911,37.5442276,-0.182,-0.201,-0.198,0.000,122.0896402,37.5442227,0.157,0.00,1.50,-5.09,-9223372036854775808000.000,35.00,25,7,4,1,17,51.0
1754066383.008360,4,4.12,21.40,1.56,0,1100000,11100,000100000,-32765,0,0,0,0,0,0,-0.91,3.12,-11.65,-0.01,-0.66,-0.16,-0.01,0.01,0.00,122.0896911,37.5442276,-0.170,-0.195,-0.193,0.000,122.0896402,37.5442227,0.157,0.00,1.50,-5.09,-618970019642690137449562112000.000,35.00,25,7,4,1,17,51.0
1754066383.128284,4,4.12,21.40,1.56,0,1100000,11100,000100000,-32765,0,0,0,0,0,0,-0.99,3.16,-11.62,0.49,-0.95,-0.38,0.00,0.01,0.00,122.0896911,37.5442276,-0.181,-0.192,-0.188,0.000,122.0896402,37.5442227,0.157,0.00,1.50,-5.09,-524288000.000,35.00,25,7,4,1,17,51.0
1754066383.255705,4,4.12,21.40,1.56,0,1100000,11100,000100000,-32765,0,0,0,0,0,0,-1.09,3.24,-11.56,0.78,-1.06,-0.68,0.00,0.01,0.00,122.0896912,37.5442275,-0.188,-0.191,-0.184,0.000,122.0896402,37.5442227,0.157,0.00,1.50,-5.09,-0.000,35.00,25,7,4,1,17,51.0
1754066383.368407,4,4.12,21.40,1.56,0,1100000,11100,000100000,-32765,0,0,0,0,0,0,-1.27,3.40,-11.42,0.59,-0.68,-0.65,0.00,0.01,0.01,122.0896912,37.5442275,-0.194,-0.192,-0.183,0.000,122.0896402,37.5442227,0.157,0.00,1.50,-5.09,0.000,35.00,25,7,4,1,17,52.0
1754066383.490707,4,4.12,21.40,1.56,0,1100000,11100,000100000,-32765,0,0,0,0,0,0,-1.27,3.43,-11.35,0.20,0.08,-0.63,0.00,0.00,0.01,122.0896912,37.5442275,-0.192,-0.192,-0.185,0.000,122.0896402,37.5442227,0.157,0.00,1.50,-5.09,-9863906233025910030396221816832.000,35.00,25,7,4,1,17,52.0
1754066383.608378,4,4.12,21.40,1.56,0,1100000,11100,000100000,-32765,0,0,0,0,0,0,-1.24,3.43,-11.29,-0.18,0.36,-0.56,0.00,0.01,0.01,122.0896912,37.5442275,-0.191,-0.192,-0.189,0.000,122.0896402,37.5442227,0.157,0.00,1.50,-5.09,-9863906233025910030396221816832.000,35.00,25,7,4,1,17,52.0
1754066383.728306,4,4.12,21.40,1.56,0,1100000,11100,000100000,-32765,0,0,0,0,0,0,-1.20,3.40,-11.25,-0.39,0.18,-0.42,0.00,0.01,0.01,122.0896913,37.5442275,-0.177,-0.189,-0.188,0.000,122.0896402,37.5442227,0.157,0.00,1.50,-5.09,0.000,35.00,25,7,4,1,17,52.0
1754066383.857304,4,4.12,21.40,1.56,0,1100000,11100,000100000,-32765,0,0,0,0,0,0,-1.23,3.36,-11.21,-0.41,-0.47,-0.31,-0.01,0.00,0.02,122.0896913,37.5442275,-0.192,-0.189,-0.189,0.000,122.0896402,37.5442227,0.157,0.00,1.50,-5.09,0.000,35.00,25,7,4,1,17,52.0
1754066383.968364,4,4.12,21.40,1.59,0,1100000,11100,000100000,-32765,0,0,0,0,0,0,-1.46,3.31,-11.18,-0.16,-1.20,0.00,-0.01,0.00,0.01,122.0896913,37.5442275,-0.207,-0.193,-0.192,0.000,122.0896402,37.5442227,0.157,0.00,1.50,-5.09,549755813888000.000,35.00,25,7,4,1,17,52.0
1754066384.090701,4,4.12,21.40,1.59,0,1100000,11100,000100000,-32765,0,0,0,0,0,0,-1.53,3.30,-11.17,-0.05,-0.57,-0.07,-0.01,0.00,0.01,122.0896913,37.5442275,-0.215,-0.197,-0.196,0.000,122.0896402,37.5442227,0.157,0.00,1.50,-5.09,36028797018963968000.000,35.00,25,7,4,1,17,52.0
1754066384.208440,4,4.12,21.30,1.59,0,1100000,11100,000100000,-32765,0,0,0,0,0,0,-1.51,3.30,-11.16,0.06,0.47,-0.24,-0.01,0.00,0.01,122.0896913,37.5442275,-0.195,-0.197,-0.197,0.000,122.0896402,37.5442227,0.157,0.00,1.50,-5.09,140737488355328000.000,35.00,25,7,4,1,17,52.0
1754066384.328323,4,4.12,21.30,1.59,0,1100000,11100,000100000,-32765,0,0,0,0,0,0,-1.40,3.32,-11.12,0.15,1.31,-0.40,-0.01,0.00,0.01,122.0896913,37.5442275,-0.193,-0.196,-0.201,0.000,122.0896402,37.5442227,0.157,0.00,1.50,-5.09,2097152000.000,35.00,25,7,4,1,17,53.0
1754066384.456911,4,4.12,21.30,1.59,0,1100000,11100,000100000,-32765,0,0,0,0,0,0,-1.23,3.32,-11.05,-0.19,1.56,-0.92,-0.01,0.00,0.00,122.0896913,37.5442273,-0.198,-0.197,-0.202,0.000,122.0896402,37.5442227,0.157,0.00,1.50,-5.09,2097152000.000,35.00,25,7,4,1,17,53.0
1754066384.568398,4,4.12,21.30,1.59,0,1100000,11100,000100000,-32765,0,0,0,0,0,0,-0.99,3.19,-10.77,-0.95,0.73,-1.71,0.00,0.00,0.00,122.0896914,37.5442273,-0.180,-0.193,-0.196,0.000,122.0896402,37.5442227,0.157,0.00,1.50,-5.09,-0.000,35.00,25,7,4,1,17,53.0
1754066384.690659,4,4.12,21.30,1.59,0,1100000,11100,000100000,-32765,0,0,0,0,0,0,-0.96,3.09,-10.60,-1.12,0.07,-1.61,0.00,0.00,0.00,122.0896914,37.5442273,-0.182,-0.191,-0.190,0.000,122.0896402,37.5442227,0.157,0.00,1.50,-5.09,0.000,35.00,25,7,4,1,17,53.0
1754066384.808839,4,4.12,21.30,1.56,0,1100000,11100,000100000,-32765,0,0,0,0,0,0,-0.96,2.98,-10.44,-1.27,-0.14,-1.57,0.00,0.00,0.00,122.0896914,37.5442273,-0.183,-0.189,-0.187,0.000,122.0896402,37.5442227,0.157,0.00,1.50,-5.09,35325109577187328.000,35.00,25,7,4,1,17,53.0
1754066384.928265,4,4.02,21.30,1.56,0,1100000,11100,000100000,-32765,0,0,0,0,0,0,-0.96,2.86,-10.28,-1.29,-0.09,-1.57,0.00,0.00,0.00,122.0896914,37.5442273,-0.190,-0.189,-0.186,0.000,122.0896402,37.5442227,0.157,0.00,1.50,-5.09,-0.008,35.00,25,7,4,1,17,53.0
1754066385.056449,4,4.02,21.30,1.56,0,1100000,11100,000100000,-32765,0,0,0,0,0,0,-0.95,2.75,-10.11,-1.19,0.03,-1.66,0.00,0.00,0.00,122.0896914,37.5442273,-0.189,-0.189,-0.185,0.000,122.0896402,37.5442227,0.157,0.00,1.50,-5.09,0.000,35.00,25,7,4,1,17,53.0
1754066385.168358,4,4.02,21.30,1.56,0,1100000,11100,000100000,-32765,0,0,0,0,0,0,-0.95,2.57,-9.79,-0.84,-0.27,-1.55,0.00,0.00,0.01,122.0896914,37.5442273,-0.188,-0.189,-0.186,0.000,122.0896402,37.5442227,0.157,0.00,1.50,-5.09,-0.000,32.93,25,7,4,1,17,53.0
1754066385.290651,4,4.02,21.30,1.56,0,1100000,11100,000100000,-32765,0,0,0,0,0,0,-1.01,2.52,-9.63,-0.61,-0.76,-1.54,0.00,0.00,0.01,122.0896914,37.5442273,-0.168,-0.185,-0.183,0.000,122.0896402,37.5442227,0.157,0.00,1.50,-5.09,-8455716864.000,31.81,25,7,4,1,17,54.0
1754066385.408376,4,4.02,21.30,1.55,0,1100000,11100,000100000,-32765,0,0,0,0,0,0,-1.11,2.47,-9.49,-0.52,-1.21,-1.31,0.00,0.00,0.01,122.0896914,37.5442273,-0.172,-0.182,-0.181,0.000,122.0896402,37.5442227,0.157,0.00,1.50,-5.09,-39930993907189226147146150969344.000,30.85,25,7,4,1,17,54.0
1754066385.528275,4,4.02,21.30,1.56,0,1100000,11100,000100000,-32765,0,0,0,0,0,0,-1.25,2.43,-9.37,-0.46,-1.52,-1.19,0.00,0.00,0.01,122.0896914,37.5442273,-0.157,-0.177,-0.175,0.000,122.0896402,37.5442227,0.157,0.00,1.50,-5.09,0.000,29.96,25,7,4,1,17,54.0
1754066385.656428,4,4.02,21.30,1.56,0,1100000,11100,000100000,-32765,0,0,0,0,0,0,-1.39,2.40,-9.25,-0.45,-1.45,-1.05,0.00,0.00,0.01,122.0896914,37.5442273,-0.164,-0.174,-0.170,0.000,122.0896402,37.5442227,0.157,0.00,1.50,-5.09,0.000,29.16,25,7,4,1,17,54.0
1754066385.768325,4,4.02,21.30,1.56,0,1100000,11100,000100000,-32765,0,0,0,0,0,0,-1.54,2.35,-9.02,-0.15,-0.43,-1.24,0.00,0.00,0.01,122.0896914,37.5442273,-0.159,-0.171,-0.164,0.000,122.0896402,37.5442227,0.157,0.00,1.50,-5.09,2225411534618624.000,27.54,25,7,4,1,17,54.0
1754066385.890648,4,4.02,21.30,1.56,0,1100000,11100,000100000,-32765,0,0,0,0,0,0,-1.54,2.36,-8.88,0.08,0.09,-1.39,0.00,0.00,0.01,122.0896914,37.5442273,-0.146,-0.166,-0.160,0.000,122.0896402,37.5442227,0.157,0.00,1.50,-5.09,8489271296.000,26.58,25,7,4,1,17,54.0
1754066386.008324,4,4.02,21.30,1.56,0,1100000,11100,000100000,-32765,0,0,0,0,0,0,-1.51,2.40,-8.74,0.34,0.25,-1.51,0.00,0.00,0.01,122.0896914,37.5442273,-0.156,-0.164,-0.156,0.000,122.0896402,37.5442227,0.157,0.00,1.50,-5.09,0.000,25.58,25,7,4,1,17,54.0
1754066386.130963,4,4.02,21.30,1.57,0,1100000,11100,000100000,-32765,0,0,0,0,0,0,-1.48,2.46,-8.58,0.53,0.02,-1.56,0.01,0.00,0.01,122.0896914,37.5442275,-0.150,-0.161,-0.155,0.000,122.0896402,37.5442227,0.157,0.00,1.50,-5.09,0.000,24.47,25,7,4,1,17,54.0
1754066386.257250,4,4.02,21.30,1.57,0,1100000,11100,000100000,-32765,0,0,0,0,0,0,-1.50,2.52,-8.44,0.56,-0.34,-1.38,0.01,0.00,0.01,122.0896914,37.5442275,-0.140,-0.157,-0.150,0.000,122.0896402,37.5442227,0.157,0.00,1.50,-5.09,-33030144.000,23.47,25,7,4,1,17,54.0
1754066386.368316,4,4.02,21.30,1.56,0,1100000,11100,000100000,-32765,0,0,0,0,0,0,-1.59,2.61,-8.22,0.11,-0.33,-1.01,0.00,0.00,0.01,122.0896914,37.5442275,-0.150,-0.156,-0.148,0.000,122.0896402,37.5442227,0.157,0.00,1.50,-5.09,-0.000,21.93,25,7,4,1,17,55.0
1754066386.490725,4,4.02,21.30,1.56,0,1100000,11100,000100000,-32765,0,0,0,0,0,0,-1.57,2.60,-8.12,-0.21,0.44,-1.00,0.00,0.00,0.01,122.0896914,37.5442275,-0.165,-0.157,-0.152,0.000,122.0896402,37.5442227,0.157,0.00,1.50,-5.09,-0.000,21.24,25,7,4,1,17,55.0
1754066386.608308,4,4.02,21.30,1.56,0,1100000,11100,000100000,-32765,0,0,0,0,0,0,-1.44,2.57,-8.02,-0.37,1.42,-1.12,0.00,0.00,0.01,122.0896914,37.5442275,-0.170,-0.160,-0.155,0.000,122.0896402,37.5442227,0.157,0.00,1.50,-5.09,-0.000,20.51,25,7,4,1,17,55.0
1754066386.728309,4,4.02,21.30,1.56,0,1100000,11100,000100000,-32765,0,0,0,0,0,0,-1.24,2.55,-7.88,-0.32,1.98,-1.38,0.00,0.00,0.01,122.0896914,37.5442275,-0.155,-0.159,-0.156,0.000,122.0896402,37.5442227,0.157,0.00,1.50,-5.09,-0.000,19.58,25,7,4,1,17,55.0
1754066386.857659,4,4.02,21.30,1.56,0,1100000,11100,000100000,-32765,0,0,0,0,0,0,-1.04,2.53,-7.75,-0.27,1.84,-1.39,0.00,0.00,0.01,122.0896914,37.5442275,-0.162,-0.159,-0.160,0.000,122.0896402,37.5442227,0.157,0.00,1.50,-5.09,-129024.000,18.62,25,7,4,1,17,55.0
1754066386.968370,4,4.02,21.30,1.57,0,1100000,11100,000100000,-32765,0,0,0,0,0,0,-0.89,2.49,-7.49,-0.22,-0.16,-1.19,0.00,0.00,0.01,122.0896914,37.5442275,-0.143,-0.156,-0.159,0.000,122.0896402,37.5442227,0.157,0.00,1.50,-5.09,-581072438321850875904.000,16.81,25,7,4,1,17,55.0
1754066387.090688,4,4.02,21.30,1.57,0,1100000,11100,000100000,-32765,0,0,0,0,0,0,-0.97,2.47,-7.37,-0.29,-0.96,-1.07,0.00,0.00,0.01,122.0896914,37.5442275,-0.154,-0.156,-0.157,0.000,122.0896402,37.5442227,0.157,0.00,1.50,-5.09,-39930993907189226147146150969344.000,16.01,25,7,4,1,17,55.0
1754066387.208304,4,4.02,21.30,1.58,0,1100000,11100,000100000,-32765,0,0,0,0,0,0,-1.09,2.45,-7.27,-0.21,-1.42,-1.02,0.00,0.00,0.01,122.0896914,37.5442275,-0.142,-0.153,-0.151,0.000,122.0896402,37.5442227,0.157,0.00,1.50,-5.09,0.000,15.28,25,7,4,1,17,55.0
1754066387.328290,4,4.02,21.30,1.56,0,1100000,11100,000100000,-32765,0,0,0,0,0,0,-1.21,2.44,-7.16,-0.11,-1.16,-0.99,0.00,0.00,0.01,122.0896914,37.5442275,-0.134,-0.149,-0.147,0.000,122.0896402,37.5442227,0.157,0.00,1.50,-5.09,0.000,14.55,25,7,4,1,17,56.0
1754066387.455920,4,4.02,21.30,1.56,0,1100000,11100,000100000,-32765,0,0,0,0,0,0,-1.27,2.46,-7.05,0.15,-0.50,-1.18,0.00,0.00,0.01,122.0896914,37.5442275,-0.127,-0.145,-0.140,0.000,122.0896402,37.5442227,0.157,0.00,1.50,-5.09,-2616917616701553124779370149926928384.000,13.78,25,7,4,1,17,56.0
1754066387.568330,4,4.02,21.40,1.56,0,1100000,11100,000100000,-32765,0,0,0,0,0,0,-1.25,2.60,-6.79,0.83,0.25,-1.47,0.00,0.01,0.00,122.0896915,37.5442275,-0.128,-0.141,-0.137,0.000,122.0896402,37.5442227,0.157,0.00,1.50,-5.09,-0.000,11.93,25,7,4,1,17,56.0
1754066387.690641,4,4.02,21.40,1.56,0,1100000,11100,000100000,-32765,0,0,0,0,0,0,-1.23,2.71,-6.64,1.12,0.04,-1.59,0.00,0.01,0.00,122.0896915,37.5442275,-0.122,-0.138,-0.131,0.000,122.0896402,37.5442227,0.157,0.00,1.50,-5.09,0.000,10.85,25,7,4,1,17,56.0
1754066387.808358,4,4.02,21.40,1.55,0,1100000,11100,000100000,-32765,0,0,0,0,0,0,-1.27,2.84,-6.48,1.07,-0.64,-1.58,0.00,0.01,0.00,122.0896915,37.5442275,-0.138,-0.138,-0.130,0.000,122.0896402,37.5442227,0.157,0.00,1.50,-5.09,-131596288.000,9.74,25,7,4,1,17,56.0
1754066387.928222,4,4.02,21.40,1.55,0,1100000,11100,000100000,-32765,0,0,0,0,0,0,-1.37,2.94,-6.32,0.79,-1.35,-1.58,0.00,0.01,0.00,122.0896915,37.5442275,-0.149,-0.140,-0.133,0.000,122.0896402,37.5442227,0.157,0.00,1.50,-5.09,41704528367751735512356946516295811072.000,8.62,25,7,4,1,17,56.0
1754066388.057062,4,4.02,21.40,1.55,0,1100000,11100,000100000,-32765,0,0,0,0,0,0,-1.56,2.99,-6.17,0.35,-2.13,-1.26,0.00,0.01,0.00,122.0896915,37.5442275,-0.164,-0.145,-0.140,0.000,122.0896402,37.5442227,0.157,0.00,1.50,-5.09,134754598912.000,7.62,25,7,4,1,17,56.0
1754066388.168325,4,4.02,21.30,1.54,0,1100000,11100,000100000,-32765,0,0,0,0,0,0,-1.95,2.94,-5.97,-0.64,-1.78,-0.78,0.00,0.00,0.01,122.0896916,37.5442275,-0.146,-0.145,-0.144,0.000,122.0896402,37.5442227,0.157,0.00,1.50,-5.09,162908313936530216845144322329280512.000,6.16,25,7,4,1,17,56.0
1754066388.290608,4,4.02,21.30,1.54,0,1100000,11100,000100000,-32765,0,0,0,0,0,0,-2.05,2.87,-5.89,-0.83,-0.74,-0.69,-0.01,0.00,0.01,122.0896916,37.5442275,-0.124,-0.141,-0.144,0.000,122.0896402,37.5442227,0.157,0.00,1.50,-5.09,-0.000,5.62,25,7,4,1,17,57.0
1754066388.408334,4,4.02,21.30,1.53,0,1100000,11100,000100000,-32765,0,0,0,0,0,0,-2.01,2.80,-5.80,-0.68,0.68,-0.94,-0.01,0.00,0.00,122.0896916,37.5442275,-0.126,-0.138,-0.142,0.000,122.0896402,37.5442227,0.157,0.00,1.50,-5.09,-606880761446543845702500352.000,5.01,25,7,4,1,17,57.0
1754066388.528252,4,4.02,21.40,1.54,0,1100000,11100,000100000,-32765,0,0,0,0,0,0,-1.86,2.77,-5.69,-0.36,1.65,-1.16,-0.01,0.00,0.00,122.0896916,37.5442273,-0.140,-0.138,-0.140,0.000,122.0896402,37.5442227,0.157,0.00,1.50,-5.09,0.000,4.24,25,7,4,1,17,57.0
1754066388.657268,4,4.02,21.40,1.54,0,1100000,11100,000100000,-32765,0,0,0,0,0,0,-1.65,2.76,-5.56,-0.13,1.93,-1.40,-0.01,0.00,0.00,122.0896916,37.5442273,-0.132,-0.137,-0.134,0.000,122.0896402,37.5442227,0.157,0.00,1.50,-5.09,0.000,3.32,25,7,4,1,17,57.0
1754066388.768317,4,4.02,21.30,1.55,0,1100000,11100,000100000,-32765,0,0,0,0,0,0,-1.42,2.77,-5.29,-0.14,0.44,-1.31,-0.01,0.00,0.00,122.0896916,37.5442273,-0.121,-0.134,-0.129,0.000,122.0896402,37.5442227,0.157,0.00,1.50,-5.09,0.000,1.43,25,7,4,1,17,57.0
1754066388.890618,4,4.02,21.30,1.55,0,1100000,11100,000100000,-32765,0,0,0,0,0,0,-1.41,2.75,-5.16,-0.33,-0.15,-1.20,0.00,0.00,0.00,122.0896916,37.5442273,-0.118,-0.131,-0.128,0.000,122.0896402,37.5442227,0.157,0.00,1.50,-5.09,0.000,0.55,25,7,4,1,17,57.0
1754066389.008287,4,4.02,21.30,1.55,0,1100000,11100,000100000,-32765,0,0,0,0,0,0,-1.42,2.71,-5.05,-0.48,-0.13,-1.08,0.00,0.00,0.00,122.0896916,37.5442273,-0.134,-0.131,-0.129,0.000,122.0896402,37.5442227,0.157,0.00,1.50,-5.09,0.000,655.15,25,7,4,1,17,57.0
1754066389.128177,4,4.02,21.30,1.55,0,1100000,11100,000100000,-32765,0,0,0,0,0,0,-1.40,2.66,-4.95,-0.58,0.25,-0.97,0.00,0.00,0.00,122.0896917,37.5442273,-0.146,-0.134,-0.130,0.000,122.0896402,37.5442227,0.157,0.00,1.50,-5.09,2269814212194729984.000,654.42,25,7,4,1,17,57.0
1754066389.255666,4,4.02,21.30,1.56,0,1100000,11100,000100000,-32765,0,0,0,0,0,0,-1.34,2.61,-4.86,-0.55,0.67,-0.88,0.00,0.00,0.00,122.0896917,37.5442273,-0.143,-0.136,-0.132,0.000,122.0896402,37.5442227,0.157,0.00,1.50,-5.09,-0.000,653.80,25,7,4,1,17,57.0
1754066389.368292,4,4.02,21.30,1.55,0,1100000,11100,000100000,-32765,0,0,0,0,0,0,-1.20,2.55,-4.68,-0.16,0.25,-0.87,0.00,0.00,0.01,122.0896917,37.5442273,-0.142,-0.137,-0.137,0.000,122.0896402,37.5442227,0.157,0.00,1.50,-5.09,-0.000,652.50,25,7,4,1,17,58.0
1754066389.490564,4,4.02,21.30,1.55,0,1100000,11100,000100000,-32765,0,0,0,0,0,0,-1.22,2.56,-4.59,0.03,-0.33,-0.94,0.00,0.00,0.00,122.0896917,37.5442273,-0.153,-0.140,-0.144,0.000,122.0896402,37.5442227,0.157,0.00,1.50,-5.09,-0.000,651.88,25,7,4,1,17,58.0
1754066389.608292,4,4.02,21.30,1.54,0,1100000,11100,000100000,-32765,0,0,0,0,0,0,-1.27,2.59,-4.48,0.24,-0.61,-1.06,0.00,0.00,0.00,122.0896917,37.5442273,-0.141,-0.141,-0.145,0.000,122.0896402,37.5442227,0.157,0.00,1.50,-5.09,-0.000,651.15,25,7,4,1,17,58.0
1754066389.728152,4,3.92,21.30,1.54,0,1100000,11100,000100000,-32765,0,0,0,0,0,0,-1.34,2.63,-4.37,0.33,-0.77,-1.11,0.00,0.00,0.00,122.0896917,37.5442273,-0.139,-0.140,-0.144,0.000,122.0896402,37.5442227,0.157,0.00,1.50,-5.09,40889337760961767574677658592608256.000,650.34,25,7,4,1,17,58.0
1754066389.855859,4,3.92,21.30,1.54,0,1100000,11100,000100000,-32765,0,0,0,0,0,0,-1.40,2.66,-4.25,0.20,-0.59,-1.18,0.00,0.00,0.00,122.0896917,37.5442273,-0.131,-0.139,-0.141,0.000,122.0896402,37.5442227,0.157,0.00,1.50,-5.09,2269814212194729984.000,649.54,25,7,4,1,17,58.0
1754066389.968237,4,3.92,21.30,1.54,0,1100000,11100,000100000,-32765,0,0,0,0,0,0,-1.46,2.65,-4.02,-0.39,-0.42,-1.15,0.00,0.00,0.00,122.0896917,37.5442273,-0.121,-0.135,-0.137,0.000,122.0896402,37.5442227,0.157,0.00,1.50,-5.09,595018176841575296925696.000,647.88,25,7,4,1,17,58.0
1754066390.090701,4,3.92,21.30,1.54,0,1100000,11100,000100000,-32765,0,0,0,0,0,0,-1.52,2.59,-3.90,-0.70,-0.79,-1.04,0.00,0.00,0.00,122.0896917,37.5442273,-0.105,-0.129,-0.128,0.000,122.0896402,37.5442227,0.157,0.00,1.50,-5.09,-0.000,647.07,25,7,4,1,17,58.0
1754066390.208321,4,3.92,21.40,1.54,0,1100000,11100,000100000,-32765,0,0,0,0,0,0,-1.62,2.51,-3.81,-0.93,-1.07,-0.87,0.00,0.00,0.00,122.0896917,37.5442273,-0.105,-0.124,-0.120,0.000,122.0896402,37.5442227,0.157,0.00,1.50,-5.09,-8658654068736.000,646.42,25,7,4,1,17,58.0
1754066390.328233,4,3.92,21.40,1.55,0,1100000,11100,000100000,-32765,0,0,0,0,0,0,-1.70,2.42,-3.71,-1.02,-0.80,-0.87,-0.01,0.00,0.00,122.0896918,37.5442273,-0.105,-0.120,-0.113,0.000,122.0896402,37.5442227,0.157,0.00,1.50,-5.09,0.000,645.77,25,7,4,1,17,59.0
1754066390.456819,4,3.92,21.40,1.55,0,1100000,11100,000100000,-32765,0,0,0,0,0,0,-1.74,2.32,-3.62,-1.00,-0.31,-0.87,-0.01,0.00,0.00,122.0896918,37.5442273,-0.105,-0.117,-0.108,0.000,122.0896402,37.5442227,0.157,0.00,1.50,-5.09,39149853742400151193684803584.000,645.11,25,7,4,1,17,59.0
1754066390.568254,4,3.92,21.30,1.57,0,1100000,11100,000100000,-32765,0,0,0,0,0,0,-1.68,2.16,-3.46,-0.70,0.41,-0.81,-0.01,0.00,0.00,122.0896918,37.5442273,-0.093,-0.112,-0.103,0.000,122.0896402,37.5442227,0.157,0.00,1.50,-5.09,-38232279045312647650082816.000,643.96,25,7,4,1,17,59.0
1754066390.690547,4,3.92,21.30,1.57,0,1100000,11100,000100000,-32765,0,0,0,0,0,0,-1.66,2.12,-3.37,-0.48,0.03,-0.80,-0.01,0.00,0.00,122.0896918,37.5442273,-0.083,-0.107,-0.098,0.000,122.0896402,37.5442227,0.157,0.00,1.50,-5.09,0.000,643.38,25,7,4,1,17,59.0
1754066390.808587,4,3.92,21.30,1.58,0,1100000,11100,000100000,-32765,0,0,0,0,0,0,-1.69,2.09,-3.30,-0.26,-0.49,-0.66,-0.01,0.00,0.00,122.0896918,37.5442273,-0.095,-0.104,-0.096,0.000,122.0896402,37.5442227,0.157,0.00,1.50,-5.09,0.000,642.88,25,7,4,1,17,59.0
1754066390.928187,4,3.92,21.30,1.57,0,1100000,11100,000100000,-32765,0,0,0,0,0,0,-1.76,2.09,-3.23,0.02,-0.77,-0.64,0.00,0.00,0.00,122.0896918,37.5442273,-0.098,-0.103,-0.095,0.000,122.0896402,37.5442227,0.157,0.00,1.50,-5.09,0.000,642.38,25,7,4,1,17,59.0
1754066391.130877,4,3.92,21.30,1.57,0,1100000,11100,000100000,-32765,0,0,0,0,0,0,-1.83,2.12,-3.16,0.29,-0.70,-0.77,0.00,0.00,0.00,122.0896918,37.5442273,-0.106,-0.104,-0.095,0.000,122.0896402,37.5442227,0.157,0.00,1.50,-5.09,0.000,641.88,25,7,4,1,17,59.0
1754066391.168567,4,3.92,21.30,1.58,0,1100000,11100,000100000,-32765,0,0,0,0,0,0,-1.84,2.24,-2.96,0.59,0.21,-1.19,0.00,0.00,0.00,122.0896918,37.5442273,-0.084,-0.100,-0.093,0.000,122.0896402,37.5442227,0.157,0.00,1.50,-5.09,-0.000,640.46,25,7,4,1,17,59.0
1754066391.290536,4,3.92,21.30,1.58,0,1100000,11100,000100000,-32765,0,0,0,0,0,0,-1.79,2.29,-2.83,0.37,0.44,-1.26,0.00,0.00,0.00,122.0896919,37.5442273,-0.089,-0.098,-0.094,0.000,122.0896402,37.5442227,0.157,0.00,1.50,-5.09,-0.000,639.58,25,7,4,1,18,0.0
1754066391.408181,4,3.92,21.30,1.55,0,1100000,11100,000100000,-32765,0,0,0,0,0,0,-1.74,2.30,-2.71,-0.13,0.52,-1.17,0.00,0.00,0.00,122.0896919,37.5442273,-0.100,-0.098,-0.095,0.000,122.0896402,37.5442227,0.157,0.00,1.50,-5.09,2627302210418622780036431142585368576.000,638.77,25,7,4,1,18,0.0
1754066391.528132,4,3.92,21.30,1.54,0,1100000,11100,000100000,-32765,0,0,0,0,0,0,-1.69,2.25,-2.63,-0.63,0.42,-0.70,0.00,0.00,0.00,122.0896919,37.5442273,-0.101,-0.099,-0.096,0.000,122.0896402,37.5442227,0.157,0.00,1.50,-5.09,-0.000,638.15,25,7,4,1,18,0.0
