pc_timestamp,mode,temperature,control_voltage,power_current,water_leak,sensor_status,sensor_update,fault_status,power_status,force_cmd1,force_cmd2,force_cmd3,force_cmd4,force_cmd5,force_cmd6,roll,pitch,yaw,angular_vel_x,angular_vel_y,angular_vel_z,linear_vel_x,linear_vel_y,linear_vel_z,longitude,latitude,depth_raw,depth_lpf,depth_ma,altitude,target_longitude,target_latitude,target_depth,target_roll,target_pitch,target_yaw,target_altitude,target_speed,utc_year,utc_month,utc_day,utc_hour,utc_minute,utc_second
1754028005.969036,4,3.00,20.29,3.06,0,1100000,11100,000100000,-32765,0,0,0,0,0,0,-0.68,1.81,-6.27,0.76,0.70,-0.64,0.01,0.00,0.00,122.0896833,37.5440837,-0.242,-0.242,-0.242,0.000,122.0896278,37.5441104,-0.037,0.00,1.50,2.67,-127.000,35.00,25,7,4,0,26,15.0
1754028005.999884,4,3.00,20.20,3.22,0,1100000,11100,000100000,-32765,0,0,0,0,0,0,-0.53,1.89,-6.17,0.03,0.41,-0.32,0.00,0.00,0.00,122.0896833,37.5440837,-0.238,-0.242,-0.240,0.000,122.0896278,37.5441104,-0.037,0.00,1.50,2.67,643966504915940535960325228331008.000,35.00,25,7,4,0,26,16.0
1754028006.004064,4,3.00,20.29,3.06,0,1100000,11100,000100000,-32765,0,0,0,0,0,0,-0.55,1.86,-6.16,-0.43,-0.32,-0.04,0.00,0.00,0.00,122.0896833,37.5440837,-0.232,-0.240,-0.238,0.000,122.0896278,37.5441104,-0.037,0.00,1.50,2.67,-0.000,35.00,25,7,4,0,26,16.0
1754028006.009005,4,3.00,20.29,3.06,0,1100000,11100,000100000,-32765,0,0,0,0,0,0,-0.63,1.79,-6.17,-0.69,-0.93,0.15,0.00,0.00,0.00,122.0896833,37.5440837,-0.228,-0.237,-0.235,0.000,122.0896278,37.5441104,-0.037,0.00,1.50,2.67,-2234207627640832.000,35.00,25,7,4,0,26,16.0
1754028006.012417,4,3.00,20.29,3.06,0,1100000,11100,000100000,-32765,0,0,0,0,0,0,-0.74,1.72,-6.19,-0.68,-1.12,0.22,0.00,0.00,0.00,122.0896833,37.5440837,-0.231,-0.236,-0.234,0.000,122.0896278,37.5441104,-0.037,0.00,1.50,2.67,0.000,35.00,25,7,4,0,26,16.0
1754028006.018254,4,3.00,20.29,3.06,0,1100000,11100,000100000,-32765,0,0,0,0,0,0,-0.84,1.67,-6.21,-0.40,-0.79,0.15,0.00,0.00,0.00,122.0896833,37.5440837,-0.233,-0.235,-0.232,0.000,122.0896278,37.5441104,-0.037,0.00,1.50,2.67,136902082560.000,35.00,25,7,4,0,26,16.0
1754028006.019747,4,3.00,20.29,3.19,0,1100000,11100,000100000,-32765,0,0,0,0,0,0,-0.84,1.70,-6.19,0.50,0.47,-0.21,0.00,0.00,0.00,122.0896833,37.5440837,-0.218,-0.232,-0.228,0.000,122.0896278,37.5441104,-0.037,0.00,1.50,2.67,0.000,35.00,25,7,4,0,26,16.0
1754028006.022576,4,3.00,20.20,3.26,0,1100000,11100,000100000,-32765,0,0,0,0,0,0,-0.76,1.78,-6.16,0.76,0.75,-0.32,0.00,0.00,0.00,122.0896833,37.5440837,-0.223,-0.230,-0.226,0.000,122.0896278,37.5441104,-0.037,0.00,1.50,2.67,-9370945989444452220928.000,35.00,25,7,4,0,26,16.0
1754028006.023926,4,3.00,20.20,3.27,0,1100000,11100,000100000,-32765,0,0,0,0,0,0,-0.70,1.86,-6.14,0.78,0.50,-0.29,0.00,0.00,0.00,122.0896833,37.5440837,-0.227,-0.230,-0.226,0.000,122.0896278,37.5441104,-0.037,0.00,1.50,2.67,-0.000,35.00,25,7,4,0,26,16.0
1754028006.025633,4,3.00,20.20,3.26,0,1100000,11100,000100000,-32765,0,0,0,0,0,0,-0.69,1.93,-6.11,0.63,-0.09,-0.14,0.00,0.00,0.00,122.0896833,37.5440837,-0.230,-0.230,-0.226,0.000,122.0896278,37.5441104,-0.037,0.00,1.50,2.67,8522825728.000,35.00,25,7,4,0,26,16.0
1754028006.027088,4,3.00,20.20,3.26,0,1100000,11100,000100000,-32765,0,0,0,0,0,0,-0.75,1.98,-6.11,0.42,-0.68,0.04,0.00,0.00,0.00,122.0896833,37.5440837,-0.220,-0.228,-0.224,0.000,122.0896278,37.5441104,-0.037,0.00,1.50,2.67,0.000,35.00,25,7,4,0,26,17.0
1754028006.029466,4,3.00,20.29,3.00,0,1100000,11100,000100000,-32765,0,0,0,0,0,0,-0.91,2.01,-6.16,0.07,-0.58,0.31,0.00,0.00,0.00,122.0896833,37.5440837,-0.217,-0.226,-0.223,0.000,122.0896278,37.5441104,-0.037,0.00,1.50,2.67,-42036835366697964480582898281365897216.000,35.00,25,7,4,0,26,17.0
1754028006.031147,4,3.00,20.29,2.95,0,1100000,11100,000100000,-32765,0,0,0,0,0,0,-0.92,2.01,-6.19,0.06,0.16,0.29,0.00,0.00,0.00,122.0896833,37.5440837,-0.222,-0.225,-0.223,0.000,122.0896278,37.5441104,-0.037,0.00,1.50,2.67,-42036835366697964480582898281365897216.000,35.00,25,7,4,0,26,17.0
1754028006.032618,4,3.00,20.29,2.81,0,1100000,11100,000100000,-32765,0,0,0,0,0,0,-0.84,2.02,-6.21,0.15,0.98,0.15,0.00,0.00,0.00,122.0896833,37.5440837,-0.227,-0.225,-0.223,0.000,122.0896278,37.5441104,-0.037,0.00,1.50,2.67,-10022362558054438705583309717504.000,35.00,25,7,4,0,26,17.0
1754028006.034194,4,3.00,20.29,2.70,0,1100000,11100,000100000,-32765,0,0,0,0,0,0,-0.70,2.05,-6.22,0.29,1.39,0.01,0.00,0.00,0.00,122.0896833,37.5440837,-0.242,-0.229,-0.226,0.000,122.0896278,37.5441104,-0.037,0.00,1.50,2.67,-139088220913664.000,35.00,25,7,4,0,26,17.0
1754028006.035721,4,3.00,20.29,2.40,0,1100000,11100,000100000,-32765,0,0,0,0,0,0,-0.58,2.08,-6.21,0.35,1.21,-0.07,0.00,0.00,0.00,122.0896833,37.5440837,-0.242,-0.231,-0.230,0.000,122.0896278,37.5441104,-0.037,0.00,1.50,2.67,-0.000,35.00,25,7,4,0,26,17.0
1754028006.037473,4,3.00,20.29,2.13,0,1100000,11100,000100000,-32765,0,0,0,0,0,0,-0.47,2.10,-6.20,-0.20,0.06,-0.09,0.00,0.00,0.00,122.0896833,37.5440837,-0.268,-0.239,-0.240,0.000,122.0896278,37.5441104,-0.037,0.00,1.50,2.67,-0.000,35.00,25,7,4,0,26,17.0
1754028006.051854,4,3.00,20.29,2.17,0,1100000,11100,000100000,-32765,0,0,0,0,0,0,-0.49,2.07,-6.19,-0.43,-0.18,-0.02,0.00,0.00,0.00,122.0896833,37.5440837,-0.274,-0.246,-0.251,0.000,122.0896278,37.5441104,-0.037,0.00,1.50,2.67,-32384.000,35.00,25,7,4,0,26,17.0
1754028006.171152,4,3.00,20.29,2.17,0,1100000,11100,000100000,-32765,0,0,0,0,0,0,-0.50,2.01,-6.19,-0.58,-0.07,0.08,0.00,0.00,0.00,122.0896833,37.5440837,-0.279,-0.252,-0.261,0.000,122.0896278,37.5441104,-0.037,0.00,1.50,2.67,0.000,35.00,25,7,4,0,26,18.0
1754028006.295875,4,3.00,20.29,2.06,0,1100000,11100,000100000,-32765,0,0,0,0,0,0,-0.49,1.95,-6.21,-0.59,0.20,0.13,0.00,0.00,0.00,122.0896833,37.5440837,-0.269,-0.256,-0.267,0.000,122.0896278,37.5441104,-0.037,0.00,1.50,2.67,0.496,35.00,25,7,4,0,26,18.0
1754028006.411169,4,3.00,20.29,2.06,0,1100000,11100,000100000,-32765,0,0,0,0,0,0,-0.46,1.90,-6.22,-0.39,0.39,0.09,0.00,0.00,0.00,122.0896833,37.5440837,-0.256,-0.256,-0.269,0.000,122.0896278,37.5441104,-0.037,0.00,1.50,2.67,153533579091057905187684352.000,35.00,25,7,4,0,26,18.0
1754028006.531373,4,3.00,20.29,2.29,0,1100000,11100,000100000,-32765,0,0,0,0,0,0,-0.40,1.92,-6.20,0.37,0.13,-0.18,0.00,0.00,0.00,122.0896833,37.5440837,-0.262,-0.257,-0.268,0.000,122.0896278,37.5441104,-0.037,0.00,1.50,2.67,35747322042253312.000,35.00,25,7,4,0,26,18.0
1754028006.651612,4,3.00,20.29,2.25,0,1100000,11100,000100000,-32765,0,0,0,0,0,0,-0.41,1.98,-6.17,0.62,-0.20,-0.28,0.00,0.00,0.00,122.0896833,37.5440837,-0.269,-0.260,-0.267,0.000,122.0896278,37.5441104,-0.037,0.00,1.50,2.67,0.000,35.00,25,7,4,0,26,18.0
1754028006.771072,4,3.00,20.29,2.25,0,1100000,11100,000100000,-32765,0,0,0,0,0,0,-0.45,2.04,-6.14,0.67,-0.53,-0.29,0.00,0.00,0.00,122.0896833,37.5440837,-0.275,-0.263,-0.266,0.000,122.0896278,37.5441104,-0.037,0.00,1.50,2.67,-569705352862367744.000,35.00,25,7,4,0,26,18.0
1754028006.895967,4,3.00,20.40,1.77,0,1100000,11100,000100000,-32765,0,0,0,0,0,0,-0.52,2.10,-6.12,0.55,-0.76,-0.21,0.00,0.00,0.00,122.0896833,37.5440837,-0.267,-0.263,-0.266,0.000,122.0896278,37.5441104,-0.037,0.00,1.50,2.67,-0.000,35.00,25,7,4,0,26,18.0
1754028007.011206,4,3.00,20.40,1.77,0,1100000,11100,000100000,-32765,0,0,0,0,0,0,-0.60,2.15,-6.10,0.37,-0.83,-0.11,0.00,0.00,0.00,122.0896833,37.5440837,-0.260,-0.263,-0.267,0.000,122.0896278,37.5441104,-0.037,0.00,1.50,2.67,40089450232217754822333238870016.000,35.00,25,7,4,0,26,18.0
1754028007.131311,4,3.00,20.40,1.71,0,1100000,11100,000100000,-32765,0,0,0,0,0,0,-0.74,2.18,-6.10,0.00,-0.55,-0.01,0.00,0.00,0.00,122.0896833,37.5440837,-0.255,-0.261,-0.265,0.000,122.0896278,37.5441104,-0.037,0.00,1.50,2.67,2225411534618624.000,35.00,25,7,4,0,26,19.0
1754028007.251370,4,3.00,20.29,1.93,0,1100000,11100,000100000,-32765,0,0,0,0,0,0,-0.79,2.16,-6.09,-0.12,-0.41,0.00,0.00,0.00,0.00,122.0896833,37.5440837,-0.251,-0.259,-0.262,0.000,122.0896278,37.5441104,-0.037,0.00,1.50,2.67,9334052501297033117696.000,35.00,25,7,4,0,26,19.0
1754028007.370251,4,3.00,20.29,1.93,0,1100000,11100,000100000,-32765,0,0,0,0,0,0,-0.82,2.15,-6.09,-0.18,-0.31,-0.01,0.00,0.00,0.00,122.0896833,37.5440837,-0.236,-0.255,-0.254,0.000,122.0896278,37.5441104,-0.037,0.00,1.50,2.67,40089450232217754822333238870016.000,35.00,25,7,4,0,26,19.0
1754028007.495892,4,3.00,20.40,1.90,0,1100000,11100,000100000,-32765,0,0,0,0,0,0,-0.85,2.13,-6.09,-0.16,-0.27,0.00,0.00,0.00,0.00,122.0896833,37.5440837,-0.237,-0.251,-0.248,0.000,122.0896278,37.5441104,-0.037,0.00,1.50,2.67,-0.000,35.00,25,7,4,0,26,19.0
1754028007.611224,4,3.00,20.40,1.90,0,1100000,11100,000100000,-32765,0,0,0,0,0,0,-0.87,2.12,-6.09,-0.06,-0.25,0.03,0.00,0.00,0.00,122.0896834,37.5440837,-0.231,-0.247,-0.242,0.000,122.0896278,37.5441104,-0.037,0.00,1.50,2.67,-0.000,35.00,25,7,4,0,26,19.0
1754028007.731505,4,3.00,20.29,1.96,0,1100000,11100,000100000,-32765,0,0,0,0,0,0,-0.92,2.13,-6.11,0.15,-0.24,0.12,0.00,0.00,0.00,122.0896834,37.5440837,-0.228,-0.243,-0.237,0.000,122.0896278,37.5441104,-0.037,0.00,1.50,2.67,-0.000,35.00,25,7,4,0,26,19.0
1754028007.851285,4,3.00,20.29,1.96,0,1100000,11100,000100000,-32765,0,0,0,0,0,0,-0.95,2.15,-6.13,0.20,-0.18,0.13,0.00,0.00,0.00,122.0896834,37.5440837,-0.225,-0.240,-0.231,0.000,122.0896278,37.5441104,-0.037,0.00,1.50,2.67,40089450232217754822333238870016.000,35.00,25,7,4,0,26,19.0
1754028007.971180,4,3.00,20.29,1.96,0,1100000,11100,000100000,-32765,0,0,0,0,0,0,-0.96,2.17,-6.14,0.20,0.00,0.11,0.00,0.00,0.00,122.0896834,37.5440837,-0.222,-0.236,-0.229,0.000,122.0896278,37.5441104,-0.037,0.00,1.50,2.67,2278821411449470976.000,35.00,25,7,4,0,26,19.0
1754028008.315466,4,3.00,20.29,1.90,0,1100000,11100,000100000,-32765,0,0,0,0,0,0,-0.94,2.19,-6.15,0.14,0.21,0.07,0.00,0.00,0.00,122.0896834,37.5440837,-0.226,-0.234,-0.226,0.000,122.0896278,37.5441104,-0.037,0.00,1.50,2.67,530579456.000,35.00,25,7,4,0,26,19.0
1754028008.316360,4,3.00,20.29,1.90,0,1100000,11100,000100000,-32765,0,0,0,0,0,0,-0.91,2.19,-6.15,0.01,0.27,0.05,0.00,0.00,0.00,122.0896834,37.5440837,-0.223,-0.232,-0.225,0.000,122.0896278,37.5441104,-0.037,0.00,1.50,2.67,129536.000,35.00,25,7,4,0,26,20.0
1754028008.545366,4,3.00,20.29,2.22,0,1100000,11100,000100000,-32765,0,0,0,0,0,0,-0.90,2.17,-6.15,-0.12,-0.05,0.00,0.00,0.00,0.00,122.0896834,37.5440837,-0.224,-0.230,-0.224,0.000,122.0896278,37.5441104,-0.037,0.00,1.50,2.67,2278821411449470976.000,35.00,25,7,4,0,26,20.0
1754028008.546193,4,3.00,20.40,1.81,0,1100000,11100,000100000,-32765,0,0,0,0,0,0,-0.92,2.16,-6.15,-0.13,-0.28,-0.02,0.00,0.00,0.00,122.0896834,37.5440837,-0.221,-0.228,-0.223,0.000,122.0896278,37.5441104,-0.037,0.00,1.50,2.67,9558069761328161912520704.000,35.00,25,7,4,0,26,20.0
1754028008.571248,4,3.00,20.40,1.81,0,1100000,11100,000100000,-32765,0,0,0,0,0,0,-0.96,2.15,-6.15,-0.11,-0.38,-0.04,0.00,0.00,0.00,122.0896834,37.5440837,-0.226,-0.228,-0.224,0.000,122.0896278,37.5441104,-0.037,0.00,1.50,2.67,40089450232217754822333238870016.000,35.00,25,7,4,0,26,20.0
1754028008.695289,4,3.00,20.29,2.00,0,1100000,11100,000100000,-32765,0,0,0,0,0,0,-0.98,2.14,-6.14,-0.10,-0.26,-0.04,0.00,0.00,0.00,122.0896834,37.5440837,-0.242,-0.231,-0.227,0.000,122.0896278,37.5441104,-0.037,0.00,1.50,2.67,168147341466791857922331593125463588864.000,35.00,25,7,4,0,26,20.0
1754028008.811188,4,3.00,20.29,2.00,0,1100000,11100,000100000,-32765,0,0,0,0,0,0,-0.98,2.13,-6.14,-0.09,0.11,-0.03,0.00,0.00,0.00,122.0896834,37.5440837,-0.235,-0.232,-0.229,0.000,122.0896278,37.5441104,-0.037,0.00,1.50,2.67,-0.000,35.00,25,7,4,0,26,20.0
1754028008.931450,4,3.00,20.29,1.86,0,1100000,11100,000100000,-32765,0,0,0,0,0,0,-0.86,2.11,-6.14,-0.10,0.81,0.00,0.00,0.00,0.00,122.0896834,37.5440838,-0.237,-0.233,-0.232,0.000,122.0896278,37.5441104,-0.037,0.00,1.50,2.67,-0.000,35.00,25,7,4,0,26,20.0
1754028009.051403,4,3.00,20.29,1.91,0,1100000,11100,000100000,-32765,0,0,0,0,0,0,-0.78,2.09,-6.14,-0.12,0.79,0.04,0.00,0.00,0.00,122.0896834,37.5440837,-0.238,-0.234,-0.235,0.000,122.0896278,37.5441104,-0.037,0.00,1.50,2.67,-0.000,35.00,25,7,4,0,26,20.0
1754028009.171163,4,3.00,20.29,1.91,0,1100000,11100,000100000,-32765,0,0,0,0,0,0,-0.73,2.08,-6.15,-0.13,0.50,0.08,0.00,0.00,0.00,122.0896834,37.5440837,-0.225,-0.232,-0.235,0.000,122.0896278,37.5441104,-0.037,0.00,1.50,2.67,-0.000,35.00,25,7,4,0,26,21.0
1754028009.295426,4,3.00,20.29,2.17,0,1100000,11100,000100000,-32765,0,0,0,0,0,0,-0.70,2.07,-6.16,-0.07,0.11,0.10,0.00,0.00,0.00,122.0896834,37.5440837,-0.229,-0.231,-0.233,0.000,122.0896278,37.5441104,-0.037,0.00,1.50,2.67,-7.906,35.00,25,7,4,0,26,21.0
1754028009.411235,4,3.00,20.29,2.17,0,1100000,11100,000100000,-32765,0,0,0,0,0,0,-0.71,2.07,-6.17,0.02,-0.16,0.10,0.00,0.00,0.00,122.0896834,37.5440837,-0.232,-0.231,-0.232,0.000,122.0896278,37.5441104,-0.037,0.00,1.50,2.67,-7.906,35.00,25,7,4,0,26,21.0
1754028009.531374,4,3.00,20.40,1.79,0,1100000,11100,000100000,-32765,0,0,0,0,0,0,-0.75,2.10,-6.19,0.18,-0.10,0.10,0.00,0.00,0.00,122.0896834,37.5440837,-0.248,-0.235,-0.234,0.000,122.0896278,37.5441104,-0.037,0.00,1.50,2.67,-0.000,35.00,25,7,4,0,26,21.0
1754028009.651468,4,3.00,20.29,2.21,0,1100000,11100,000100000,-32765,0,0,0,0,0,0,-0.75,2.11,-6.20,0.14,0.07,0.10,0.00,0.00,0.00,122.0896834,37.5440837,-0.239,-0.236,-0.235,0.000,122.0896278,37.5441104,-0.037,0.00,1.50,2.67,-0.000,35.00,25,7,4,0,26,21.0
1754028009.771177,4,3.00,20.29,2.21,0,1100000,11100,000100000,-32765,0,0,0,0,0,0,-0.74,2.12,-6.20,-0.02,0.18,0.02,0.00,0.00,0.00,122.0896834,37.5440837,-0.252,-0.239,-0.240,0.000,122.0896278,37.5441104,-0.037,0.00,1.50,2.67,-0.000,35.00,25,7,4,0,26,21.0
1754028009.895111,4,3.00,20.40,1.85,0,1100000,11100,000100000,-32765,0,0,0,0,0,0,-0.71,2.10,-6.20,-0.16,0.24,-0.09,0.00,0.00,0.00,122.0896834,37.5440837,-0.236,-0.238,-0.241,0.000,122.0896278,37.5441104,-0.037,0.00,1.50,2.67,-0.000,35.00,25,7,4,0,26,21.0
1754028010.017107,4,3.00,20.40,1.85,0,1100000,11100,000100000,-32765,0,0,0,0,0,0,-0.69,2.08,-6.17,-0.30,0.18,-0.22,0.00,0.00,0.00,122.0896834,37.5440837,-0.224,-0.236,-0.240,0.000,122.0896278,37.5441104,-0.037,0.00,1.50,2.67,-0.008,35.00,25,7,4,0,26,21.0
1754028010.131486,4,3.10,20.29,2.21,0,1100000,11100,000100000,-32765,0,0,0,0,0,0,-0.70,2.01,-6.13,-0.34,-0.14,-0.23,0.00,0.00,0.00,122.0896834,37.5440837,-0.220,-0.232,-0.234,0.000,122.0896278,37.5441104,-0.037,0.00,1.50,2.67,0.000,35.00,25,7,4,0,26,22.0
1754028010.251224,4,3.10,20.40,1.92,0,1100000,11100,000100000,-32765,0,0,0,0,0,0,-0.71,1.98,-6.10,-0.23,-0.10,-0.24,0.00,0.00,0.00,122.0896834,37.5440837,-0.237,-0.233,-0.234,0.000,122.0896278,37.5441104,-0.037,0.00,1.50,2.67,0.000,35.00,25,7,4,0,26,22.0
1754028010.371313,4,3.10,20.40,1.92,0,1100000,11100,000100000,-32765,0,0,0,0,0,0,-0.70,1.97,-6.07,-0.05,0.12,-0.31,0.00,0.00,0.00,122.0896834,37.5440837,-0.225,-0.232,-0.228,0.000,122.0896278,37.5441104,-0.037,0.00,1.50,2.67,0.000,35.00,25,7,4,0,26,22.0
1754028010.495070,4,3.10,20.29,2.19,0,1100000,11100,000100000,-32765,0,0,0,0,0,0,-0.67,1.98,-6.03,0.15,0.37,-0.38,0.00,0.00,0.00,122.0896834,37.5440837,-0.222,-0.230,-0.226,0.000,122.0896278,37.5441104,-0.037,0.00,1.50,2.67,0.000,35.00,25,7,4,0,26,22.0
1754028010.611222,4,3.10,20.40,1.88,0,1100000,11100,000100000,-32765,0,0,0,0,0,0,-0.59,2.05,-5.97,0.37,0.25,-0.30,0.00,0.00,0.00,122.0896834,37.5440837,-0.218,-0.227,-0.224,0.000,122.0896278,37.5441104,-0.037,0.00,1.50,2.67,-139088220913664.000,35.00,25,7,4,0,26,22.0
1754028010.731377,4,3.10,20.40,1.88,0,1100000,11100,000100000,-32765,0,0,0,0,0,0,-0.59,2.08,-5.94,0.27,-0.05,-0.20,0.00,0.00,0.00,122.0896834,37.5440838,-0.236,-0.229,-0.228,0.000,122.0896278,37.5441104,-0.037,0.00,1.50,2.67,-0.000,35.00,25,7,4,0,26,22.0
1754028010.851372,4,3.10,20.40,1.95,0,1100000,11100,000100000,-32765,0,0,0,0,0,0,-0.62,2.10,-5.93,0.08,-0.28,-0.13,0.00,0.00,0.00,122.0896834,37.5440838,-0.250,-0.233,-0.230,0.000,122.0896278,37.5441104,-0.037,0.00,1.50,2.67,-0.000,35.00,25,7,4,0,26,22.0
1754028010.971183,4,3.10,20.40,1.95,0,1100000,11100,000100000,-32765,0,0,0,0,0,0,-0.64,2.09,-5.92,-0.11,-0.28,-0.08,0.00,0.00,0.00,122.0896834,37.5440838,-0.247,-0.236,-0.235,0.000,122.0896278,37.5441104,-0.037,0.00,1.50,2.67,-0.000,35.00,25,7,4,0,26,22.0
1754028011.095081,4,3.10,20.29,2.22,0,1100000,11100,000100000,-32765,0,0,0,0,0,0,-0.66,2.07,-5.91,-0.19,-0.12,-0.07,0.00,0.00,0.00,122.0896834,37.5440838,-0.239,-0.237,-0.238,0.000,122.0896278,37.5441104,-0.037,0.00,1.50,2.67,-7.906,35.00,25,7,4,0,26,22.0
1754028011.211283,4,3.10,20.29,2.22,0,1100000,11100,000100000,-32765,0,0,0,0,0,0,-0.66,2.05,-5.90,-0.14,0.01,-0.07,0.00,0.00,0.00,122.0896834,37.5440838,-0.233,-0.236,-0.241,0.000,122.0896278,37.5441104,-0.037,0.00,1.50,2.67,-135828340736.000,35.00,25,7,4,0,26,23.0
1754028011.331465,4,3.10,20.40,1.87,0,1100000,11100,000100000,-32765,0,0,0,0,0,0,-0.67,2.07,-5.89,0.22,-0.11,0.02,0.00,0.00,0.00,122.0896834,37.5440838,-0.246,-0.238,-0.243,0.000,122.0896278,37.5441104,-0.037,0.00,1.50,2.67,-7.906,35.00,25,7,4,0,26,23.0
1754028011.451401,4,3.10,20.40,1.75,0,1100000,11100,000100000,-32765,0,0,0,0,0,0,-0.68,2.11,-5.91,0.41,-0.07,0.12,0.00,0.00,0.00,122.0896834,37.5440838,-0.238,-0.238,-0.241,0.000,122.0896278,37.5441104,-0.037,0.00,1.50,2.67,-0.000,35.00,25,7,4,0,26,23.0
1754028011.571232,4,3.10,20.40,1.75,0,1100000,11100,000100000,-32765,0,0,0,0,0,0,-0.68,2.15,-5.92,0.48,0.11,0.16,0.00,0.00,0.00,122.0896834,37.5440838,-0.238,-0.238,-0.239,0.000,122.0896278,37.5441104,-0.037,0.00,1.50,2.67,39149853742400151193684803584.000,35.00,25,7,4,0,26,23.0
1754028011.695118,4,3.10,20.29,2.09,0,1100000,11100,000100000,-32765,0,0,0,0,0,0,-0.66,2.20,-5.93,0.47,0.18,0.14,0.00,0.00,0.00,122.0896834,37.5440838,-0.232,-0.237,-0.237,0.000,122.0896278,37.5441104,-0.037,0.00,1.50,2.67,0.031,35.00,25,7,4,0,26,23.0
1754028011.811268,4,3.10,20.40,1.80,0,1100000,11100,000100000,-32765,0,0,0,0,0,0,-0.59,2.27,-5.94,0.18,0.45,0.00,0.00,0.00,0.00,122.0896834,37.5440838,-0.219,-0.233,-0.235,0.000,122.0896278,37.5441104,-0.037,0.00,1.50,2.67,-654229404175388281194842537481732096.000,35.00,25,7,4,0,26,23.0
1754028011.931435,4,3.10,20.40,1.80,0,1100000,11100,000100000,-32765,0,0,0,0,0,0,-0.54,2.26,-5.95,-0.08,0.49,0.02,0.00,0.00,0.00,122.0896834,37.5440838,-0.218,-0.230,-0.229,0.000,122.0896278,37.5441104,-0.037,0.00,1.50,2.67,0.000,35.00,25,7,4,0,26,23.0
1754028012.051488,4,3.10,20.29,2.09,0,1100000,11100,000100000,-32765,0,0,0,0,0,0,-0.51,2.24,-5.96,-0.35,0.24,0.12,0.00,0.00,0.00,122.0896834,37.5440838,-0.210,-0.226,-0.224,0.000,122.0896278,37.5441104,-0.037,0.00,1.50,2.67,0.000,35.00,25,7,4,0,26,23.0
1754028012.172478,4,3.10,20.29,2.09,0,1100000,11100,000100000,-32765,0,0,0,0,0,0,-0.52,2.19,-5.98,-0.53,-0.22,0.32,0.00,0.00,0.00,122.0896834,37.5440838,-0.230,-0.227,-0.222,0.000,122.0896278,37.5441104,-0.037,0.00,1.50,2.67,530579456.000,35.00,25,7,4,0,26,24.0
1754028012.350408,4,3.10,20.29,2.02,0,1100000,11100,000100000,-32765,0,0,0,0,0,0,-0.58,2.13,-6.03,-0.55,-0.59,0.46,0.00,0.00,0.00,122.0896834,37.5440838,-0.232,-0.228,-0.222,0.000,122.0896278,37.5441104,-0.037,0.00,1.50,2.67,-0.000,35.00,25,7,4,0,26,24.0
1754028012.410486,4,3.10,20.40,1.86,0,1100000,11100,000100000,-32765,0,0,0,0,0,0,-0.70,2.05,-6.10,-0.16,-0.49,0.20,0.00,0.00,0.00,122.0896834,37.5440838,-0.243,-0.231,-0.227,0.000,122.0896278,37.5441104,-0.037,0.00,1.50,2.67,-135828340736.000,35.00,25,7,4,0,26,24.0
1754028012.531510,4,3.10,20.40,1.86,0,1100000,11100,000100000,-32765,0,0,0,0,0,0,-0.74,2.04,-6.10,-0.05,-0.30,-0.05,0.00,0.00,0.00,122.0896834,37.5440838,-0.230,-0.231,-0.229,0.000,122.0896278,37.5441104,-0.037,0.00,1.50,2.67,-569705352862367744.000,35.00,25,7,4,0,26,24.0
1754028012.651436,4,3.10,20.29,2.01,0,1100000,11100,000100000,-32765,0,0,0,0,0,0,-0.75,2.06,-6.08,0.17,-0.12,-0.23,0.00,0.00,0.00,122.0896834,37.5440838,-0.226,-0.230,-0.232,0.000,122.0896278,37.5441104,-0.037,0.00,1.50,2.67,-33161216.000,35.00,25,7,4,0,26,24.0
1754028012.771220,4,3.10,20.29,2.01,0,1100000,11100,000100000,-32765,0,0,0,0,0,0,-0.76,2.09,-6.05,0.29,-0.06,-0.27,0.00,0.00,0.00,122.0896834,37.5440838,-0.223,-0.228,-0.231,0.000,122.0896278,37.5441104,-0.037,0.00,1.50,2.67,-0.000,35.00,25,7,4,0,26,24.0
1754028013.105716,4,3.10,20.40,1.83,0,1100000,11100,000100000,-32765,0,0,0,0,0,0,-0.77,2.12,-6.03,0.21,-0.15,-0.19,0.00,0.00,0.00,122.0896834,37.5440838,-0.227,-0.228,-0.230,0.000,122.0896278,37.5441104,-0.037,0.00,1.50,2.67,-0.000,35.00,25,7,4,0,26,24.0
1754028013.106524,4,3.10,20.29,2.22,0,1100000,11100,000100000,-32765,0,0,0,0,0,0,-0.85,2.10,-6.04,-0.24,-0.46,0.26,0.00,0.00,0.00,122.0896834,37.5440838,-0.219,-0.226,-0.225,0.000,122.0896278,37.5441104,-0.037,0.00,1.50,2.67,-0.000,35.00,25,7,4,0,26,24.0
1754028013.131447,4,3.10,20.29,2.22,0,1100000,11100,000100000,-32765,0,0,0,0,0,0,-0.89,2.07,-6.08,-0.26,-0.33,0.40,0.00,0.00,0.00,122.0896834,37.5440838,-0.224,-0.226,-0.224,0.000,122.0896278,37.5441104,-0.037,0.00,1.50,2.67,-32384.000,35.00,25,7,4,0,26,25.0
1754028013.251440,4,3.10,20.40,1.82,0,1100000,11100,000100000,-32765,0,0,0,0,0,0,-0.90,2.05,-6.12,-0.05,0.00,0.38,0.00,0.00,0.00,122.0896834,37.5440838,-0.228,-0.226,-0.224,0.000,122.0896278,37.5441104,-0.037,0.00,1.50,2.67,-135828340736.000,35.00,25,7,4,0,26,25.0
1754028013.371125,4,3.10,20.40,1.82,0,1100000,11100,000100000,-32765,0,0,0,0,0,0,-0.87,2.08,-6.15,0.34,0.32,0.19,0.00,0.00,0.00,122.0896834,37.5440838,-0.224,-0.226,-0.225,0.000,122.0896278,37.5441104,-0.037,0.00,1.50,2.67,-0.008,35.00,25,7,4,0,26,25.0
1754028013.495192,4,3.10,20.29,2.26,0,1100000,11100,000100000,-32765,0,0,0,0,0,0,-0.84,2.14,-6.15,0.69,0.39,-0.05,0.00,0.00,0.00,122.0896834,37.5440838,-0.215,-0.224,-0.222,0.000,122.0896278,37.5441104,-0.037,0.00,1.50,2.67,168147341466791857922331593125463588864.000,35.00,25,7,4,0,26,25.0
1754028013.611532,4,3.10,20.40,1.80,0,1100000,11100,000100000,-32765,0,0,0,0,0,0,-0.83,2.30,-6.10,0.73,-0.29,-0.23,0.00,0.00,0.00,122.0896834,37.5440838,-0.226,-0.224,-0.224,0.000,122.0896278,37.5441104,-0.037,0.00,1.50,2.67,-8866461766385664.000,35.00,25,7,4,0,26,25.0
1754028013.731457,4,3.10,20.40,1.80,0,1100000,11100,000100000,-32765,0,0,0,0,0,0,-0.88,2.35,-6.09,0.42,-0.54,-0.09,0.00,0.00,0.00,122.0896834,37.5440838,-0.242,-0.228,-0.227,0.000,122.0896278,37.5441104,-0.037,0.00,1.50,2.67,-0.000,35.00,25,7,4,0,26,25.0
1754028013.851502,4,3.10,20.29,2.02,0,1100000,11100,000100000,-32765,0,0,0,0,0,0,-0.92,2.36,-6.10,-0.01,-0.35,0.14,0.00,0.00,0.00,122.0896834,37.5440838,-0.254,-0.233,-0.232,0.000,122.0896278,37.5441104,-0.037,0.00,1.50,2.67,-0.000,35.00,25,7,4,0,26,25.0
1754028013.971296,4,3.10,20.29,2.02,0,1100000,11100,000100000,-32765,0,0,0,0,0,0,-0.92,2.33,-6.13,-0.40,0.20,0.37,0.00,0.00,0.00,122.0896834,37.5440838,-0.263,-0.239,-0.240,0.000,122.0896278,37.5441104,-0.037,0.00,1.50,2.67,-0.492,35.00,25,7,4,0,26,25.0
1754028014.095386,4,3.10,20.40,1.84,0,1100000,11100,000100000,-32765,0,0,0,0,0,0,-0.77,2.23,-6.22,-0.31,0.95,0.47,0.00,0.00,0.00,122.0896834,37.5440838,-0.254,-0.242,-0.248,0.000,122.0896278,37.5441104,-0.037,0.00,1.50,2.67,0.000,35.00,25,7,4,0,26,26.0
1754028014.210853,4,3.10,20.29,2.11,0,1100000,11100,000100000,-32765,0,0,0,0,0,0,-0.69,2.23,-6.26,0.13,0.67,0.21,0.00,0.00,0.00,122.0896834,37.5440838,-0.237,-0.241,-0.250,0.000,122.0896278,37.5441104,-0.037,0.00,1.50,2.67,0.000,35.00,25,7,4,0,26,26.0
1754028014.331499,4,3.10,20.29,2.11,0,1100000,11100,000100000,-32765,0,0,0,0,0,0,-0.68,2.26,-6.25,0.31,-0.06,-0.14,0.00,0.00,0.00,122.0896834,37.5440838,-0.251,-0.243,-0.252,0.000,122.0896278,37.5441104,-0.037,0.00,1.50,2.67,0.000,35.00,25,7,4,0,26,26.0
1754028014.451423,4,3.10,20.29,2.05,0,1100000,11100,000100000,-32765,0,0,0,0,0,0,-0.74,2.30,-6.21,0.41,-0.79,-0.38,0.00,0.00,0.00,122.0896834,37.5440838,-0.242,-0.243,-0.249,0.000,122.0896278,37.5441104,-0.037,0.00,1.50,2.67,-8866461766385664.000,35.00,25,7,4,0,26,26.0
1754028014.571224,4,3.10,20.29,2.05,0,1100000,11100,000100000,-32765,0,0,0,0,0,0,-0.85,2.36,-6.17,0.57,-1.08,-0.44,0.00,0.00,0.00,122.0896834,37.5440838,-0.228,-0.240,-0.242,0.000,122.0896278,37.5441104,-0.037,0.00,1.50,2.67,-0.000,35.00,25,7,4,0,26,26.0
1754028014.696543,4,3.10,20.29,2.05,0,1100000,11100,000100000,-32765,0,0,0,0,0,0,-0.99,2.44,-6.10,0.17,-0.44,-0.24,0.00,0.00,0.00,122.0896834,37.5440838,-0.233,-0.239,-0.238,0.000,122.0896278,37.5441104,-0.037,0.00,1.50,2.67,33030144.000,35.00,25,7,4,0,26,26.0
1754028014.811203,4,3.10,20.29,2.05,0,1100000,11100,000100000,-32765,0,0,0,0,0,0,-1.00,2.43,-6.08,-0.27,0.04,-0.16,0.00,0.00,0.00,122.0896834,37.5440838,-0.235,-0.238,-0.238,0.000,122.0896278,37.5441104,-0.037,0.00,1.50,2.67,141863388262170624.000,35.00,25,7,4,0,26,26.0
1754028014.931587,4,3.10,20.29,2.05,0,1100000,11100,000100000,-32765,0,0,0,0,0,0,-0.97,2.37,-6.07,-0.61,0.32,-0.13,0.00,0.00,0.00,122.0896834,37.5440838,-0.223,-0.235,-0.232,0.000,122.0896278,37.5441104,-0.037,0.00,1.50,2.67,-0.000,35.00,25,7,4,0,26,26.0
1754028015.051401,4,3.10,20.29,2.05,0,1100000,11100,000100000,-32765,0,0,0,0,0,0,-0.94,2.30,-6.05,-0.76,0.33,-0.12,0.00,0.00,0.00,122.0896834,37.5440838,-0.221,-0.232,-0.228,0.000,122.0896278,37.5441104,-0.037,0.00,1.50,2.67,-8866461766385664.000,35.00,25,7,4,0,26,26.0
1754028015.171176,4,3.10,20.29,2.05,0,1100000,11100,000100000,-32765,0,0,0,0,0,0,-0.92,2.23,-6.04,-0.76,0.11,-0.11,0.00,0.00,0.00,122.0896834,37.5440838,-0.219,-0.229,-0.226,0.000,122.0896278,37.5441104,-0.037,0.00,1.50,2.67,0.000,35.00,25,7,4,0,26,27.0
1754028015.296026,4,3.10,20.20,2.25,0,1100000,11100,000100000,-32765,0,0,0,0,0,0,-0.95,2.11,-6.02,-0.41,-0.21,-0.09,0.00,0.00,0.00,122.0896834,37.5440838,-0.221,-0.228,-0.224,0.000,122.0896278,37.5441104,-0.037,0.00,1.50,2.67,-0.000,35.00,25,7,4,0,26,27.0
1754028015.411440,4,3.10,20.29,1.84,0,1100000,11100,000100000,-32765,0,0,0,0,0,0,-0.96,2.09,-6.01,-0.18,0.02,-0.11,0.00,0.00,0.00,122.0896834,37.5440838,-0.219,-0.226,-0.221,0.000,122.0896278,37.5441104,-0.037,0.00,1.50,2.67,-0.000,35.00,25,7,4,0,26,27.0
1754028015.531512,4,3.10,20.29,1.84,0,1100000,11100,000100000,-32765,0,0,0,0,0,0,-0.92,2.08,-5.99,0.00,0.45,-0.14,0.00,0.00,0.00,122.0896834,37.5440838,-0.218,-0.224,-0.220,0.000,122.0896278,37.5441104,-0.037,0.00,1.50,2.67,-0.000,35.00,25,7,4,0,26,27.0
1754028015.651458,4,3.10,20.29,2.22,0,1100000,11100,000100000,-32765,0,0,0,0,0,0,-0.84,2.09,-5.98,0.10,0.85,-0.14,0.00,0.00,0.00,122.0896834,37.5440838,-0.223,-0.224,-0.220,0.000,122.0896278,37.5441104,-0.037,0.00,1.50,2.67,-0.000,35.00,25,7,4,0,26,27.0
1754028015.771571,4,3.10,20.29,2.22,0,1100000,11100,000100000,-32765,0,0,0,0,0,0,-0.75,2.11,-5.97,0.14,0.97,-0.11,0.00,0.00,0.00,122.0896834,37.5440838,-0.214,-0.222,-0.219,0.000,122.0896278,37.5441104,-0.037,0.00,1.50,2.67,-0.000,35.00,25,7,4,0,26,27.0
1754028015.896036,4,3.10,20.29,1.83,0,1100000,11100,000100000,-32765,0,0,0,0,0,0,-0.60,2.15,-5.96,0.26,0.43,-0.02,0.00,0.00,0.00,122.0896834,37.5440838,-0.209,-0.220,-0.217,0.000,122.0896278,37.5441104,-0.037,0.00,1.50,2.67,39149853742400151193684803584.000,35.00,25,7,4,0,26,27.0
1754028016.011450,4,3.10,20.29,1.97,0,1100000,11100,000100000,-32765,0,0,0,0,0,0,-0.60,2.18,-5.96,0.30,-0.04,0.00,0.00,0.00,0.00,122.0896834,37.5440838,-0.203,-0.216,-0.213,0.000,122.0896278,37.5441104,-0.037,0.00,1.50,2.67,543313362944.000,35.00,25,7,4,0,26,27.0
1754028016.131752,4,3.10,20.29,1.97,0,1100000,11100,000100000,-32765,0,0,0,0,0,0,-0.64,2.20,-5.96,0.17,-0.49,-0.05,0.00,0.00,0.00,122.0896834,37.5440838,-0.187,-0.210,-0.207,0.000,122.0896278,37.5441104,-0.037,0.00,1.50,2.67,0.031,35.00,25,7,4,0,26,28.0
1754028016.251548,4,3.10,20.29,1.92,0,1100000,11100,000100000,-32765,0,0,0,0,0,0,-0.71,2.20,-5.94,-0.04,-0.79,-0.17,0.00,0.00,0.00,122.0896834,37.5440838,-0.199,-0.208,-0.202,0.000,122.0896278,37.5441104,-0.037,0.00,1.50,2.67,0.031,35.00,25,7,4,0,26,28.0
1754028016.371360,4,3.10,20.29,1.92,0,1100000,11100,000100000,-32765,0,0,0,0,0,0,-0.79,2.19,-5.92,-0.12,-0.75,-0.29,0.00,0.00,0.00,122.0896834,37.5440838,-0.203,-0.207,-0.200,0.000,122.0896278,37.5441104,-0.037,0.00,1.50,2.67,129536.000,35.00,25,7,4,0,26,28.0
1754028016.495229,4,3.10,20.29,2.23,0,1100000,11100,000100000,-32765,0,0,0,0,0,0,-0.84,2.16,-5.85,-0.21,0.03,-0.30,0.00,0.00,0.00,122.0896834,37.5440838,-0.202,-0.206,-0.199,0.000,122.0896278,37.5441104,-0.037,0.00,1.50,2.67,9558069761328161912520704.000,35.00,25,7,4,0,26,28.0
1754028016.611538,4,3.10,20.40,1.83,0,1100000,11100,000100000,-32765,0,0,0,0,0,0,-0.83,2.14,-5.82,-0.27,0.09,-0.21,0.00,0.00,0.00,122.0896834,37.5440838,-0.198,-0.204,-0.198,0.000,122.0896278,37.5441104,-0.037,0.00,1.50,2.67,168147341466791857922331593125463588864.000,35.00,25,7,4,0,26,28.0
1754028016.731578,4,3.10,20.40,1.83,0,1100000,11100,000100000,-32765,0,0,0,0,0,0,-0.84,2.11,-5.81,-0.29,-0.25,-0.06,0.00,0.00,0.00,122.0896834,37.5440838,-0.202,-0.204,-0.201,0.000,122.0896278,37.5441104,-0.037,0.00,1.50,2.67,-0.000,35.00,25,7,4,0,26,28.0
1754028016.851548,4,3.10,20.40,1.83,0,1100000,11100,000100000,-32765,0,0,0,0,0,0,-0.90,2.08,-5.82,-0.24,-0.67,0.15,0.00,0.00,0.00,122.0896834,37.5440838,-0.204,-0.204,-0.202,0.000,122.0896278,37.5441104,-0.037,0.00,1.50,2.67,-0.000,35.00,25,7,4,0,26,28.0
1754028016.971595,4,3.10,20.40,1.83,0,1100000,11100,000100000,-32765,0,0,0,0,0,0,-0.98,2.06,-5.85,-0.15,-0.70,0.30,0.00,0.00,0.00,122.0896834,37.5440838,-0.200,-0.203,-0.201,0.000,122.0896278,37.5441104,-0.037,0.00,1.50,2.67,-33161216.000,35.00,25,7,4,0,26,28.0
1754028017.095250,4,3.10,20.29,2.26,0,1100000,11100,000100000,-32765,0,0,0,0,0,0,-1.02,2.07,-5.92,0.23,0.14,0.33,0.00,0.00,0.00,122.0896834,37.5440838,-0.225,-0.208,-0.206,0.000,122.0896278,37.5441104,-0.037,0.00,1.50,2.67,-7.906,35.00,25,7,4,0,26,29.0
1754028017.211499,4,3.10,20.29,1.90,0,1100000,11100,000100000,-32765,0,0,0,0,0,0,-0.97,2.11,-5.95,0.44,0.66,0.24,0.00,0.00,0.00,122.0896834,37.5440838,-0.222,-0.210,-0.211,0.000,122.0896278,37.5441104,-0.037,0.00,1.50,2.67,-0.000,35.00,25,7,4,0,26,29.0
1754028017.370865,4,3.10,20.29,1.89,0,1100000,11100,000100000,-32765,0,0,0,0,0,0,-0.88,2.16,-5.97,0.57,0.88,0.16,0.00,0.00,0.00,122.0896834,37.5440838,-0.226,-0.214,-0.215,0.000,122.0896278,37.5441104,-0.037,0.00,1.50,2.67,9334052501297033117696.000,35.00,25,7,4,0,26,29.0
1754028017.450971,4,3.10,20.29,2.30,0,1100000,11100,000100000,-32765,0,0,0,0,0,0,-0.81,2.23,-5.98,0.62,0.68,0.14,0.00,0.00,0.00,122.0896834,37.5440838,-0.217,-0.214,-0.218,0.000,122.0896278,37.5441104,-0.037,0.00,1.50,2.67,0.000,35.00,25,7,4,0,26,29.0
1754028017.786486,4,3.10,20.29,2.30,0,1100000,11100,000100000,-32765,0,0,0,0,0,0,-0.79,2.29,-6.00,0.60,0.15,0.23,0.00,0.00,0.00,122.0896834,37.5440838,-0.209,-0.213,-0.220,0.000,122.0896278,37.5441104,-0.037,0.00,1.50,2.67,-152324653271443276012978176.000,35.00,25,7,4,0,26,29.0
1754028017.788206,4,3.10,20.40,1.94,0,1100000,11100,000100000,-32765,0,0,0,0,0,0,-0.86,2.37,-6.08,0.33,-0.48,0.34,0.00,0.00,0.00,122.0896833,37.5440838,-0.204,-0.211,-0.216,0.000,122.0896278,37.5441104,-0.037,0.00,1.50,2.67,-0.000,35.00,25,7,4,0,26,29.0
1754028017.811656,4,3.10,20.29,1.91,0,1100000,11100,000100000,-32765,0,0,0,0,0,0,-0.89,2.39,-6.09,0.07,-0.26,0.12,0.00,0.00,0.00,122.0896833,37.5440838,-0.206,-0.210,-0.213,0.000,122.0896278,37.5441104,-0.037,0.00,1.50,2.67,-0.000,35.00,25,7,4,0,26,29.0
1754028017.931498,4,3.10,20.29,1.91,0,1100000,11100,000100000,-32765,0,0,0,0,0,0,-0.89,2.38,-6.08,-0.15,0.08,-0.19,0.00,0.00,0.00,122.0896833,37.5440838,-0.208,-0.210,-0.209,0.000,122.0896278,37.5441104,-0.037,0.00,1.50,2.67,-0.000,35.00,25,7,4,0,26,29.0
1754028018.051522,4,3.10,20.29,1.93,0,1100000,11100,000100000,-32765,0,0,0,0,0,0,-0.87,2.36,-6.05,-0.27,0.20,-0.36,0.00,0.00,0.00,122.0896833,37.5440838,-0.209,-0.210,-0.207,0.000,122.0896278,37.5441104,-0.037,0.00,1.50,2.67,-0.000,35.00,25,7,4,0,26,29.0
1754028018.171623,4,3.10,20.29,1.93,0,1100000,11100,000100000,-32765,0,0,0,0,0,0,-0.85,2.32,-6.00,-0.37,0.13,-0.41,0.00,0.00,0.00,122.0896833,37.5440838,-0.204,-0.209,-0.206,0.000,122.0896278,37.5441104,-0.037,0.00,1.50,2.67,-504.000,35.00,25,7,4,0,26,30.0
1754028018.506167,4,3.10,20.29,1.93,0,1100000,11100,000100000,-32765,0,0,0,0,0,0,-0.87,2.21,-5.95,-0.65,-0.21,-0.16,0.00,0.00,0.00,122.0896833,37.5440838,-0.214,-0.210,-0.208,0.000,122.0896278,37.5441104,-0.037,0.00,1.50,2.67,0.000,35.00,25,7,4,0,26,30.0
1754028018.507241,4,3.10,20.29,2.16,0,1100000,11100,000100000,-32765,0,0,0,0,0,0,-0.90,2.15,-5.94,-0.68,-0.23,0.01,0.00,0.00,0.00,122.0896833,37.5440838,-0.207,-0.209,-0.208,0.000,122.0896278,37.5441104,-0.037,0.00,1.50,2.67,40089450232217754822333238870016.000,35.00,25,7,4,0,26,30.0
1754028018.531552,4,3.10,20.29,2.16,0,1100000,11100,000100000,-32765,0,0,0,0,0,0,-0.91,2.09,-5.95,-0.55,-0.06,0.11,0.00,0.00,0.00,122.0896833,37.5440838,-0.228,-0.213,-0.212,0.000,122.0896278,37.5441104,-0.037,0.00,1.50,2.67,-0.000,35.00,25,7,4,0,26,30.0
1754028018.866017,4,3.10,20.40,1.82,0,1100000,11100,000100000,-32765,0,0,0,0,0,0,-0.89,2.05,-5.96,-0.27,0.23,0.03,0.00,0.00,0.00,122.0896833,37.5440838,-0.218,-0.214,-0.214,0.000,122.0896278,37.5441104,-0.037,0.00,1.50,2.67,-139088220913664.000,35.00,25,7,4,0,26,30.0
1754028018.866950,4,3.10,20.40,1.82,0,1100000,11100,000100000,-32765,0,0,0,0,0,0,-0.84,2.05,-5.95,0.07,0.58,-0.15,0.00,0.00,0.00,122.0896833,37.5440838,-0.223,-0.216,-0.218,0.000,122.0896278,37.5441104,-0.037,0.00,1.50,2.67,-139088220913664.000,35.00,25,7,4,0,26,30.0
1754028018.895432,4,3.10,20.40,1.77,0,1100000,11100,000100000,-32765,0,0,0,0,0,0,-0.68,2.14,-5.88,0.54,0.74,-0.38,0.00,0.00,0.00,122.0896833,37.5440838,-0.220,-0.217,-0.219,0.000,122.0896278,37.5441104,-0.037,0.00,1.50,2.67,168147341466791857922331593125463588864.000,35.00,25,7,4,0,26,30.0
1754028019.226300,4,3.10,20.40,1.83,0,1100000,11100,000100000,-32765,0,0,0,0,0,0,-0.63,2.19,-5.85,0.53,0.41,-0.27,0.00,0.00,0.00,122.0896833,37.5440838,-0.212,-0.216,-0.220,0.000,122.0896278,37.5441104,-0.037,0.00,1.50,2.67,129536.000,35.00,25,7,4,0,26,30.0
1754028019.227902,4,3.10,20.40,1.83,0,1100000,11100,000100000,-32765,0,0,0,0,0,0,-0.63,2.23,-5.84,0.36,-0.12,-0.03,0.00,0.00,0.00,122.0896833,37.5440838,-0.212,-0.215,-0.217,0.000,122.0896278,37.5441104,-0.037,0.00,1.50,2.67,0.000,35.00,25,7,4,0,26,31.0
1754028019.251513,4,3.10,20.29,1.97,0,1100000,11100,000100000,-32765,0,0,0,0,0,0,-0.68,2.25,-5.86,0.10,-0.58,0.20,0.00,0.00,0.00,122.0896833,37.5440838,-0.213,-0.215,-0.216,0.000,122.0896278,37.5441104,-0.037,0.00,1.50,2.67,0.000,35.00,25,7,4,0,26,31.0
1754028019.371263,4,3.10,20.29,1.97,0,1100000,11100,000100000,-32765,0,0,0,0,0,0,-0.75,2.24,-5.88,-0.09,-0.70,0.28,0.00,0.00,0.00,122.0896833,37.5440838,-0.213,-0.214,-0.214,0.000,122.0896278,37.5441104,-0.037,0.00,1.50,2.67,0.000,35.00,25,7,4,0,26,31.0
1754028019.495224,4,3.10,20.29,2.18,0,1100000,11100,000000000,-32765,254,-3000,6868,0,-354,-1557,-0.83,2.22,-5.91,-0.04,-0.15,0.00,0.00,0.00,0.00,122.0896833,37.5440838,-0.218,-0.215,-0.213,0.000,122.0896742,37.5440844,-0.077,0.00,1.50,-10.86,0.000,620.76,25,7,4,0,26,31.0
1754028019.611485,4,3.10,20.29,2.01,0,1100000,11100,000000000,-32765,254,-3000,7000,0,-366,-1554,-0.83,2.23,-5.90,0.06,0.03,-0.13,0.00,0.00,0.00,122.0896833,37.5440838,-0.223,-0.217,-0.216,0.000,122.0896742,37.5440844,-0.077,0.00,1.50,-10.86,0.000,620.68,25,7,4,0,26,31.0
1754028019.731485,4,3.10,20.29,2.01,0,1100000,11100,000000000,-32765,254,-3000,7000,0,-369,-1564,-0.83,2.24,-5.88,0.07,-0.02,-0.16,0.00,0.00,0.00,122.0896833,37.5440838,-0.221,-0.217,-0.217,0.000,122.0896742,37.5440844,-0.058,0.00,1.50,-10.88,0.000,620.43,25,7,4,0,26,31.0
1754028019.851598,4,3.10,20.40,1.83,0,1100000,11100,000000000,-32765,311,-3000,7000,0,-336,-1578,-0.85,2.20,-5.88,-0.60,-0.30,0.08,0.00,0.00,0.00,122.0896834,37.5440838,-0.212,-0.216,-0.217,0.000,122.0896743,37.5440847,-0.045,0.00,1.50,-10.90,126.500,620.36,25,7,4,0,26,31.0
1754028019.971506,4,3.10,20.40,1.83,0,1100000,11100,000000000,-32765,313,-3000,7000,0,-177,-1607,-0.90,1.89,-5.99,-3.49,-0.39,1.38,0.00,0.00,0.00,122.0896834,37.5440838,-0.219,-0.217,-0.219,0.000,122.0896743,37.5440847,-0.045,0.00,1.50,-10.90,643966504915940535960325228331008.000,621.02,25,7,4,0,26,31.0
1754028020.095484,4,3.10,20.29,9.50,0,1100000,11100,000000000,-32765,429,-3000,7000,0,300,-1512,-0.81,0.78,-6.32,-6.65,1.18,1.70,-0.01,0.00,0.02,122.0896833,37.5440838,-0.236,-0.221,-0.222,0.000,122.0896745,37.5440853,-0.040,0.00,1.50,-10.88,-2181038080.000,623.46,25,7,4,0,26,32.0
1754028020.426122,4,3.10,20.40,9.10,0,1100000,11100,000000000,-32765,432,-3000,7000,0,597,-1448,-0.59,0.05,-6.45,-7.33,2.49,1.21,-0.01,0.00,0.02,122.0896833,37.5440838,-0.230,-0.223,-0.224,0.000,122.0896745,37.5440853,-0.040,0.00,1.50,-10.88,-0.000,624.39,25,7,4,0,26,32.0
1754028020.427683,4,3.10,20.40,8.60,0,1100000,11100,000000000,-32765,434,-3000,7000,0,958,-1437,-0.32,-0.69,-6.54,-7.74,2.79,0.84,-0.01,-0.01,0.03,122.0896833,37.5440838,-0.226,-0.223,-0.225,0.000,122.0896745,37.5440853,-0.040,0.00,1.50,-10.99,-0.000,624.27,25,7,4,0,26,32.0
1754028020.451424,4,3.10,20.29,9.00,0,1100000,11100,000000000,-32765,456,-3000,7000,0,1374,-1517,-0.04,-1.52,-6.61,-8.37,2.51,0.78,-0.01,0.00,0.04,122.0896833,37.5440837,-0.216,-0.222,-0.225,0.000,122.0896744,37.5440853,-0.040,0.00,1.50,-11.32,-0.000,622.42,25,7,4,0,26,32.0
1754028020.571305,4,3.10,20.29,10.54,0,1100000,11100,000000000,-32765,457,-3000,7000,0,1365,-1489,0.20,-2.34,-6.67,-8.09,2.69,0.61,-0.01,0.00,0.04,122.0896833,37.5440837,-0.209,-0.219,-0.224,0.000,122.0896744,37.5440853,-0.040,0.00,1.50,-11.32,-0.000,622.88,25,7,4,0,26,32.0
1754028020.906406,4,3.10,20.40,8.92,0,1100000,11100,000000000,-32765,438,-3000,7000,0,1331,-1551,0.82,-3.87,-6.67,-7.26,3.37,-0.03,-0.01,0.00,0.04,122.0896833,37.5440837,-0.190,-0.213,-0.214,0.000,122.0896744,37.5440852,-0.040,0.00,1.50,-11.61,-0.000,620.85,25,7,4,0,26,32.0
1754028020.907600,4,3.10,20.29,9.35,0,1100000,11100,000000000,-32765,438,-3000,7000,0,1340,-1546,1.14,-4.57,-6.66,-7.01,3.18,-0.21,0.00,0.00,0.04,122.0896833,37.5440837,-0.195,-0.210,-0.207,0.000,122.0896744,37.5440852,-0.040,0.00,1.50,-11.61,-0.000,620.78,25,7,4,0,26,32.0
1754028020.931644,4,3.10,20.29,7.54,0,1100000,11100,000000000,-32765,439,-3000,7000,0,1412,-1577,1.35,-5.27,-6.70,-7.05,1.74,0.27,0.00,-0.01,0.04,122.0896833,37.5440837,-0.200,-0.208,-0.202,0.000,122.0896744,37.5440852,-0.040,0.00,1.50,-11.67,-0.000,620.59,25,7,4,0,26,32.0
1754028021.051314,4,3.10,20.40,7.09,0,1100000,11100,000000000,-32765,459,-3000,7000,0,1503,-1558,1.37,-5.97,-6.74,-6.84,-0.07,0.12,-0.01,0.00,0.05,122.0896833,37.5440836,-0.196,-0.205,-0.198,0.000,122.0896744,37.5440852,-0.040,0.00,1.50,-11.67,-0.000,620.86,25,7,4,0,26,32.0
1754028021.171227,4,3.10,20.40,6.41,0,1100000,11100,000000000,-32765,459,-3000,7000,0,1559,-1550,1.29,-6.60,-6.76,-6.26,-1.19,0.13,-0.01,0.00,0.05,122.0896833,37.5440836,-0.194,-0.203,-0.195,0.000,122.0896744,37.5440852,-0.040,0.00,1.50,-11.67,-0.000,621.05,25,7,4,0,26,33.0
1754028021.295535,4,3.10,20.40,6.72,0,1100000,11100,000000000,-32765,440,-3000,6233,0,1599,-1548,0.94,-7.53,-6.76,-3.64,-1.99,-0.39,0.00,0.00,0.06,122.0896833,37.5440836,-0.168,-0.196,-0.191,0.000,122.0896744,37.5440850,-0.040,0.00,1.50,-11.74,-0.000,620.56,25,7,4,0,26,33.0
1754028021.411479,4,3.10,20.40,6.72,0,1100000,11100,000000000,-32765,440,-3000,6444,0,1582,-1556,0.76,-7.83,-6.74,-2.66,-1.65,-0.36,0.00,0.00,0.06,122.0896833,37.5440836,-0.172,-0.191,-0.186,0.000,122.0896744,37.5440850,-0.040,0.00,1.50,-11.74,-0.000,620.40,25,7,4,0,26,33.0
1754028021.531514,4,3.10,20.40,6.67,0,1100000,11100,000000000,-32765,457,-3000,5665,0,1580,-1548,0.59,-8.04,-6.69,-1.85,-1.60,-0.59,0.00,0.00,0.06,122.0896833,37.5440835,-0.157,-0.184,-0.177,0.000,122.0896744,37.5440850,-0.040,0.00,1.50,-11.76,-0.000,620.36,25,7,4,0,26,33.0
1754028021.651252,4,3.10,20.40,6.67,0,1100000,11100,000000000,-32765,456,-3000,6014,0,1588,-1555,0.39,-8.19,-6.65,-1.23,-1.77,-0.43,0.00,0.00,0.05,122.0896833,37.5440835,-0.164,-0.180,-0.171,0.000,122.0896744,37.5440850,-0.040,0.00,1.50,-11.76,-0.000,620.36,25,7,4,0,26,33.0
1754028021.771206,4,3.10,20.40,5.74,0,1100000,11100,000000000,-32765,455,-3000,5339,0,1630,-1565,0.15,-8.26,-6.62,-0.68,-2.61,-0.20,0.00,0.00,0.05,122.0896833,37.5440835,-0.150,-0.174,-0.162,0.000,122.0896744,37.5440850,-0.040,0.00,1.50,-11.74,-0.000,620.36,25,7,4,0,26,33.0
1754028021.895572,4,3.10,20.29,6.24,0,1100000,11100,000000000,-32765,436,-3000,4996,0,1645,-1572,-0.40,-8.25,-6.58,0.44,-2.90,-0.06,0.00,0.00,0.05,122.0896833,37.5440835,-0.143,-0.168,-0.157,0.000,122.0896744,37.5440850,-0.040,0.00,1.50,-11.65,-0.000,620.36,25,7,4,0,26,33.0
1754028022.011489,4,3.10,20.40,5.92,0,1100000,11100,000000000,-32765,435,-3000,5505,0,1622,-1566,-0.67,-8.15,-6.57,1.30,-2.45,-0.19,0.00,0.00,0.05,122.0896833,37.5440835,-0.153,-0.165,-0.153,0.000,122.0896744,37.5440850,-0.040,0.00,1.50,-11.65,-0.000,620.36,25,7,4,0,26,33.0
1754028022.131550,4,3.10,20.40,5.38,0,1100000,11100,000000000,-32765,435,-3000,4953,0,1583,-1559,-0.85,-7.95,-6.54,2.21,-1.67,-0.35,0.00,0.00,0.05,122.0896833,37.5440835,-0.142,-0.160,-0.150,0.000,122.0896744,37.5440850,-0.040,0.00,1.50,-11.62,-0.000,620.36,25,7,4,0,26,34.0
1754028022.251790,4,3.10,20.29,5.81,0,1100000,11100,000000000,-32765,434,-3000,4535,0,1561,-1560,-0.97,-7.68,-6.50,2.85,-1.22,-0.31,0.00,0.00,0.04,122.0896833,37.5440835,-0.133,-0.155,-0.144,0.000,122.0896744,37.5440850,-0.040,0.00,1.50,-11.62,-0.000,620.36,25,7,4,0,26,34.0
1754028022.586222,4,3.10,20.29,5.62,0,1100000,11100,000000000,-32765,433,-3000,4218,0,1557,-1567,-1.10,-7.37,-6.48,3.20,-1.14,-0.16,0.01,0.00,0.04,122.0896833,37.5440835,-0.127,-0.149,-0.140,0.000,122.0896744,37.5440850,-0.040,0.00,1.50,-11.57,-0.000,620.36,25,7,4,0,26,34.0
1754028022.587137,4,3.10,20.40,4.69,0,1100000,11100,000000000,-32765,414,-3000,4107,0,1485,-1567,-1.13,-6.67,-6.44,3.78,0.29,-0.15,0.01,0.00,0.04,122.0896833,37.5440836,-0.124,-0.144,-0.136,0.000,122.0896744,37.5440850,-0.040,0.00,1.50,-11.50,-0.000,620.36,25,7,4,0,26,34.0
1754028022.611563,4,3.10,20.29,5.08,0,1100000,11100,000000000,-32765,413,-3000,3270,0,1485,-1546,-1.10,-6.34,-6.41,3.09,0.28,-0.62,0.01,0.00,0.04,122.0896833,37.5440836,-0.107,-0.137,-0.127,0.000,122.0896744,37.5440850,-0.040,0.00,1.50,-11.50,-0.000,620.36,25,7,4,0,26,34.0
1754028022.731557,4,3.10,20.29,5.11,0,1100000,11100,000000000,-32765,409,-3000,3262,0,1546,-1499,-1.17,-6.20,-6.26,0.92,-0.92,-1.68,0.01,0.00,0.03,122.0896833,37.5440836,-0.107,-0.131,-0.120,0.000,122.0896744,37.5440850,-0.040,0.00,1.50,-11.50,-0.000,620.36,25,7,4,0,26,34.0
1754028022.851521,4,3.10,20.40,4.63,0,1100000,11100,000000000,-32765,404,-3000,3574,0,1539,-1471,-1.29,-6.20,-6.04,0.09,-0.79,-2.29,0.00,0.00,0.02,122.0896833,37.5440836,-0.113,-0.127,-0.116,0.000,122.0896744,37.5440850,-0.040,0.00,1.50,-11.50,-0.000,620.36,25,7,4,0,26,34.0
1754028022.971394,4,3.10,20.40,4.99,0,1100000,11100,000000000,-32765,418,-3000,2870,0,1525,-1464,-1.37,-6.15,-5.80,1.08,-0.51,-2.45,0.00,0.00,0.02,122.0896833,37.5440836,-0.099,-0.122,-0.110,0.000,122.0896744,37.5440850,-0.040,0.00,1.50,-11.41,-0.000,620.36,25,7,4,0,26,34.0
1754028023.095295,4,3.20,20.40,4.09,0,1100000,11100,000000000,-32765,408,-3000,2549,0,1502,-1478,-1.47,-5.76,-5.37,2.61,-0.04,-2.14,0.01,-0.01,0.02,122.0896833,37.5440836,-0.092,-0.116,-0.104,0.000,122.0896744,37.5440850,-0.040,0.00,1.50,-11.04,-0.000,620.36,25,7,4,0,26,35.0
1754028023.223634,4,3.20,20.40,4.13,0,1100000,11100,000000000,-32765,402,-3000,2090,0,1491,-1470,-1.47,-5.44,-5.15,3.36,0.16,-2.31,0.01,-0.01,0.02,122.0896832,37.5440836,-0.083,-0.109,-0.099,0.000,122.0896744,37.5440850,-0.040,0.00,1.50,-11.04,-0.000,620.36,25,7,4,0,26,35.0
1754028023.331592,4,3.20,20.40,4.43,0,1100000,11100,000000000,-32765,396,-3000,1427,0,1498,-1470,-1.48,-5.08,-4.93,4.00,0.02,-2.31,0.02,0.00,0.02,122.0896832,37.5440836,-0.069,-0.101,-0.091,0.000,122.0896744,37.5440850,-0.040,0.00,1.50,-10.80,-0.000,620.36,25,7,4,0,26,35.0
1754028023.451519,4,3.20,20.40,4.45,0,1100000,11100,000000000,-32765,372,-3000,1856,0,1496,-1466,-1.49,-4.66,-4.71,4.45,0.07,-2.40,0.02,0.00,0.02,122.0896832,37.5440837,-0.078,-0.097,-0.084,0.000,122.0896744,37.5440850,-0.040,0.00,1.50,-10.80,-0.000,620.36,25,7,4,0,26,35.0
1754028023.571219,4,3.20,20.40,4.02,0,1100000,11100,000000000,-32765,368,-3000,1250,0,1487,-1466,-1.49,-4.21,-4.48,4.75,0.24,-2.41,0.02,0.00,0.01,122.0896832,37.5440837,-0.066,-0.090,-0.078,0.000,122.0896743,37.5440850,-0.040,0.00,1.50,-10.14,-0.000,620.36,25,7,4,0,26,35.0
1754028023.695392,4,3.30,20.20,4.51,0,1100000,11100,000000000,-32765,358,-3000,1390,0,1458,-1481,-1.39,-3.23,-4.05,5.11,0.83,-2.08,0.02,0.00,0.01,122.0896832,37.5440838,-0.068,-0.086,-0.073,0.000,122.0896743,37.5440852,-0.040,0.00,1.50,-9.71,-0.000,620.36,25,7,4,0,26,35.0
1754028023.811830,4,3.30,20.29,4.19,0,1100000,11100,000000000,-32765,354,-3000,1832,0,1447,-1481,-1.30,-2.73,-3.86,5.14,1.04,-2.08,0.03,0.00,0.01,122.0896832,37.5440838,-0.077,-0.084,-0.072,0.000,122.0896743,37.5440852,-0.040,0.00,1.50,-9.71,-0.000,620.36,25,7,4,0,26,35.0
1754028023.931631,4,3.30,20.29,4.34,0,1100000,11100,000000000,-32765,350,-3000,1230,0,1426,-1489,-1.17,-2.23,-3.68,5.03,1.47,-1.90,0.03,0.00,0.01,122.0896832,37.5440838,-0.065,-0.080,-0.071,0.000,122.0896743,37.5440852,-0.040,0.00,1.50,-9.47,-0.000,620.36,25,7,4,0,26,35.0
1754028024.051561,4,3.30,20.29,4.53,0,1100000,11100,000000000,-32765,346,-3000,1091,0,1433,-1496,-1.03,-1.76,-3.52,4.63,1.33,-1.75,0.03,0.00,0.01,122.0896832,37.5440838,-0.062,-0.077,-0.068,0.000,122.0896743,37.5440852,-0.040,0.00,1.50,-9.47,-0.000,620.36,25,7,4,0,26,35.0
1754028024.171384,4,3.30,20.29,4.32,0,1100000,11100,000000000,-32765,362,-3000,981,0,1351,-1502,-0.90,-1.33,-3.36,4.22,1.32,-1.61,0.02,0.00,0.01,122.0896832,37.5440838,-0.060,-0.073,-0.067,0.000,122.0896743,37.5440853,-0.040,0.00,1.50,-8.85,0.000,620.36,25,7,4,0,26,36.0
1754028024.295547,4,3.30,20.29,4.19,0,1100000,11100,000000000,-32765,355,-3000,1216,0,922,-1512,-0.59,-0.51,-3.08,3.98,1.71,-1.38,0.02,0.00,0.01,122.0896832,37.5440838,-0.065,-0.072,-0.066,0.000,122.0896743,37.5440853,-0.040,0.00,1.50,-8.52,-38911100780481085440.000,620.36,25,7,4,0,26,36.0
1754028024.626416,4,3.30,20.40,3.95,0,1100000,11100,000000000,-32765,352,-3000,763,0,739,-1527,-0.43,-0.13,-2.97,3.84,1.57,-1.06,0.02,0.00,0.01,122.0896832,37.5440838,-0.056,-0.068,-0.062,0.000,122.0896743,37.5440853,-0.040,0.00,1.50,-8.52,39549819294033278664704.000,620.36,25,7,4,0,26,36.0
1754028024.628529,4,3.30,20.40,4.12,0,1100000,11100,000000000,-32765,350,-3000,415,0,550,-1532,-0.25,0.20,-2.87,3.46,1.90,-0.94,0.02,0.00,0.01,122.0896832,37.5440838,-0.048,-0.064,-0.058,0.000,122.0896743,37.5440853,-0.040,0.00,1.50,-8.35,0.000,620.36,25,7,4,0,26,36.0
1754028024.651438,4,3.30,20.29,4.47,0,1100000,11100,000000000,-32765,348,-3000,472,0,376,-1540,-0.03,0.53,-2.80,3.10,2.13,-0.76,0.02,0.00,0.01,122.0896832,37.5440838,-0.050,-0.061,-0.056,0.000,122.0896743,37.5440853,-0.040,0.00,1.50,-8.35,-33536.000,620.36,25,7,4,0,26,36.0
1754028024.771353,4,3.30,20.29,4.56,0,1100000,11100,000000000,-32765,309,-3000,193,0,236,-1554,0.17,0.81,-2.74,2.69,2.08,-0.45,0.02,0.00,0.01,122.0896832,37.5440840,-0.044,-0.058,-0.052,0.000,122.0896743,37.5440853,-0.040,0.00,1.50,-8.08,-0.000,620.36,25,7,4,0,26,36.0
1754028025.011451,4,3.30,20.29,4.72,0,1100000,11100,000000000,-32765,309,-3000,-291,0,-4,-1584,0.63,1.40,-2.70,1.37,1.02,0.20,0.01,0.00,0.00,122.0896832,37.5440840,-0.034,-0.053,-0.046,0.000,122.0896743,37.5440853,-0.040,0.00,1.50,-7.80,576460752303423488.000,620.36,25,7,4,0,26,36.0
1754028025.131556,4,3.30,20.29,4.74,0,1100000,11100,000000000,-32765,329,-3000,553,0,-10,-1591,0.66,1.52,-2.73,1.05,-0.01,0.35,0.01,0.00,0.00,122.0896832,37.5440841,-0.051,-0.053,-0.045,0.000,122.0896743,37.5440855,-0.040,0.00,1.50,-7.74,-616552168003460879100149760.000,620.36,25,7,4,0,26,37.0
1754028025.251665,4,3.30,20.29,4.78,0,1100000,11100,000000000,-32765,329,-3000,262,0,-63,-1576,0.68,1.61,-2.74,0.85,0.11,0.03,0.00,0.00,0.00,122.0896832,37.5440841,-0.045,-0.051,-0.045,0.000,122.0896743,37.5440855,-0.040,0.00,1.50,-7.74,-0.000,620.37,25,7,4,0,26,37.0
1754028025.371309,4,3.30,20.29,4.10,0,1100000,11100,000000000,-32765,329,-3000,-265,0,-87,-1557,0.65,1.70,-2.72,0.87,-0.27,-0.21,0.00,0.00,0.00,122.0896832,37.5440841,-0.034,-0.048,-0.042,0.000,122.0896743,37.5440855,-0.040,0.00,1.50,-7.70,0.000,620.54,25,7,4,0,26,37.0
1754028025.495222,4,3.30,20.29,4.05,0,1100000,11100,000000000,-32765,326,-3000,117,0,-70,-1545,0.40,1.82,-2.63,0.38,-1.82,-0.64,0.00,0.00,0.00,122.0896831,37.5440841,-0.042,-0.047,-0.041,0.000,122.0896743,37.5440855,-0.040,0.00,1.50,-7.70,-0.124,620.36,25,7,4,0,26,37.0
1754028025.611516,4,3.30,20.29,4.24,0,1100000,11100,000000000,-32765,324,-3000,-74,0,-52,-1536,0.18,1.84,-2.54,0.12,-2.39,-0.86,0.00,0.00,0.00,122.0896831,37.5440841,-0.038,-0.045,-0.042,0.000,122.0896743,37.5440855,-0.040,0.00,1.50,-7.74,-0.000,620.36,25,7,4,0,26,37.0
1754028025.731582,4,3.30,20.29,4.50,0,1100000,11100,000000000,-32765,322,-3000,-219,0,-60,-1536,-0.03,1.84,-2.46,-0.12,-2.25,-0.85,0.00,0.00,0.00,122.0896831,37.5440841,-0.035,-0.043,-0.039,0.000,122.0896743,37.5440855,-0.040,0.00,1.50,-7.72,-0.000,620.36,25,7,4,0,26,37.0
1754028025.851654,4,3.30,20.29,4.38,0,1100000,11100,000000000,-32765,321,-3000,-12,0,-76,-1549,-0.24,1.83,-2.40,-0.17,-1.81,-0.56,0.00,0.00,0.00,122.0896831,37.5440841,-0.040,-0.042,-0.038,0.000,122.0896743,37.5440855,-0.040,0.00,1.50,-7.72,-0.000,620.36,25,7,4,0,26,37.0
1754028025.971285,4,3.30,20.29,3.91,0,1100000,11100,000000000,-32765,321,-3000,144,0,-65,-1569,-0.43,1.81,-2.37,-0.12,-1.82,-0.11,0.00,0.00,0.00,122.0896831,37.5440841,-0.043,-0.042,-0.040,0.000,122.0896742,37.5440855,-0.040,0.00,1.50,-7.54,-520192.000,620.36,25,7,4,0,26,37.0
1754028026.100708,4,3.30,20.40,3.71,0,1100000,11100,000000000,-32765,321,-3000,266,0,-80,-1583,-0.58,1.80,-2.37,0.00,-1.45,0.19,0.00,0.00,0.00,122.0896831,37.5440841,-0.045,-0.043,-0.040,0.000,122.0896742,37.5440855,-0.040,0.00,1.50,-7.54,-532676608.000,620.36,25,7,4,0,26,37.0
1754028026.211133,4,3.30,20.29,4.10,0,1100000,11100,000000000,-32765,324,-3000,279,0,-161,-1570,-0.73,1.86,-2.47,0.47,-0.45,0.44,0.00,0.00,0.00,122.0896832,37.5440841,-0.045,-0.044,-0.042,0.000,122.0896742,37.5440855,-0.040,0.00,1.50,-7.40,-0.000,620.91,25,7,4,0,26,38.0
1754028026.331398,4,3.30,20.29,4.08,0,1100000,11100,000000000,-32765,325,-3000,50,0,-176,-1541,-0.81,1.91,-2.51,0.54,-0.63,0.27,0.00,0.00,0.00,122.0896832,37.5440841,-0.041,-0.043,-0.043,0.000,122.0896742,37.5440855,-0.040,0.00,1.50,-7.37,36605257771267391488.000,621.39,25,7,4,0,26,38.0
1754028026.451496,4,3.30,20.40,3.72,0,1100000,11100,000000000,-32765,326,-3000,193,0,-177,-1533,-0.90,1.95,-2.54,0.38,-1.00,0.29,0.00,0.00,0.00,122.0896832,37.5440841,-0.044,-0.043,-0.044,0.000,122.0896742,37.5440855,-0.040,0.00,1.50,-7.37,0.000,621.58,25,7,4,0,26,38.0
1754028026.787112,4,3.30,20.40,3.82,0,1100000,11100,000000000,-32765,326,-3000,-15,0,-166,-1557,-1.02,1.97,-2.57,0.18,-1.44,0.32,0.00,0.00,0.00,122.0896832,37.5440841,-0.039,-0.042,-0.043,0.000,122.0896743,37.5440855,-0.040,0.00,1.50,-7.47,0.000,621.07,25,7,4,0,26,38.0
1754028026.788101,4,3.30,20.29,4.04,0,1100000,11100,000000000,-32765,326,-3000,-173,0,-174,-1549,-1.15,1.98,-2.59,0.08,-1.39,0.32,0.00,0.00,0.00,122.0896832,37.5440841,-0.036,-0.041,-0.041,0.000,122.0896743,37.5440855,-0.040,0.00,1.50,-7.47,0.000,621.26,25,7,4,0,26,38.0
1754028027.016518,4,3.30,20.29,4.46,0,1100000,11100,000000000,-32765,328,-3000,-144,0,-198,-1530,-1.40,1.99,-2.67,0.08,-0.97,0.45,0.00,0.00,0.00,122.0896832,37.5440841,-0.037,-0.040,-0.039,0.000,122.0896743,37.5440855,-0.040,0.00,1.50,-7.47,0.000,621.80,25,7,4,0,26,38.0
1754028027.018300,4,3.30,20.29,4.12,0,1100000,11100,000000000,-32765,329,-3000,665,0,-209,-1519,-1.50,2.01,-2.72,0.25,-0.91,0.54,0.00,0.00,0.00,122.0896832,37.5440841,-0.053,-0.043,-0.042,0.000,122.0896743,37.5440855,-0.040,0.00,1.50,-7.47,0.000,622.15,25,7,4,0,26,38.0
1754028027.051587,4,3.30,20.40,3.79,0,1100000,11100,000000000,-32765,330,-3000,345,0,-254,-1500,-1.53,2.04,-2.74,0.33,-0.39,0.27,0.00,0.00,0.00,122.0896832,37.5440841,-0.047,-0.044,-0.043,0.000,122.0896743,37.5440855,-0.040,0.00,1.50,-7.47,-569705352862367744.000,622.30,25,7,4,0,26,38.0
1754028027.173531,4,3.30,20.40,3.76,0,1100000,11100,000000000,-32765,330,-3000,101,0,-289,-1570,-1.54,2.08,-2.75,0.34,-0.03,0.01,0.00,0.00,0.00,122.0896832,37.5440841,-0.042,-0.043,-0.043,0.000,122.0896743,37.5440855,-0.040,0.00,1.50,-7.74,-0.008,620.49,25,7,4,0,26,39.0
1754028027.385150,4,3.30,20.40,3.78,0,1100000,11100,000000000,-32765,330,-3000,-386,0,-294,-1568,-1.56,2.09,-2.76,0.19,-0.08,0.00,0.00,0.00,0.00,122.0896832,37.5440841,-0.032,-0.041,-0.042,0.000,122.0896743,37.5440855,-0.040,0.00,1.50,-7.74,-0.000,620.53,25,7,4,0,26,39.0
1754028027.411728,4,3.30,20.29,4.07,0,1100000,11100,000000000,-32765,330,-3000,-98,0,-294,-1568,-1.59,2.11,-2.74,0.00,-0.25,-0.15,0.00,0.00,0.00,122.0896832,37.5440841,-0.038,-0.040,-0.042,0.000,122.0896743,37.5440855,-0.040,0.00,1.50,-7.75,-0.000,620.36,25,7,4,0,26,39.0
1754028027.651515,4,3.30,20.40,3.82,0,1100000,11100,000000000,-32765,329,-3000,-644,0,-305,-1563,-1.60,2.10,-2.70,-0.13,0.07,-0.25,0.00,0.00,0.00,122.0896832,37.5440841,-0.027,-0.038,-0.037,0.000,122.0896743,37.5440855,-0.040,0.00,1.50,-7.74,-0.000,620.36,25,7,4,0,26,39.0
1754028027.771538,4,3.30,20.40,3.90,0,1100000,11100,000000000,-32765,328,-3000,-334,0,-276,-1561,-1.64,2.08,-2.68,-0.17,-0.28,-0.30,0.00,0.00,0.00,122.0896832,37.5440841,-0.033,-0.037,-0.034,0.000,122.0896743,37.5440855,-0.040,0.00,1.50,-7.70,-0.008,620.36,25,7,4,0,26,39.0
1754028027.895519,4,3.30,20.40,3.90,0,1100000,11100,000000000,-32765,328,-3000,-719,0,-264,-1563,-1.68,2.05,-2.65,-0.23,-0.30,-0.26,0.00,0.00,0.00,122.0896832,37.5440841,-0.025,-0.034,-0.031,0.000,122.0896743,37.5440855,-0.040,0.00,1.50,-7.70,-135828340736.000,620.36,25,7,4,0,26,39.0
1754028028.011501,4,3.30,20.40,3.83,0,1100000,11100,000000000,-32765,326,-3000,-459,0,-299,-1568,-1.63,2.04,-2.60,0.01,0.50,-0.13,0.00,0.00,0.00,122.0896832,37.5440841,-0.030,-0.034,-0.031,0.000,122.0896743,37.5440855,-0.040,0.00,1.50,-7.68,-569705352862367744.000,620.36,25,7,4,0,26,39.0
1754028028.251525,4,3.30,20.29,4.08,0,1100000,11100,000000000,-32765,326,-3000,-778,0,-356,-1572,-1.43,2.08,-2.59,0.16,1.31,-0.06,0.00,0.00,0.00,122.0896832,37.5440841,-0.024,-0.032,-0.028,0.000,122.0896743,37.5440855,-0.040,0.00,1.50,-7.60,-0.008,620.36,25,7,4,0,26,40.0
1754028028.371367,4,3.30,20.29,4.09,0,1100000,11100,000000000,-32765,326,-3000,-751,0,-349,-1572,-1.31,2.08,-2.59,-0.06,1.17,0.00,0.00,0.00,0.00,122.0896832,37.5440841,-0.024,-0.030,-0.027,0.000,122.0896743,37.5440855,-0.040,0.00,1.50,-7.59,-0.008,620.42,25,7,4,0,26,40.0
1754028028.495528,4,3.30,20.29,4.26,0,1100000,11100,000000000,-32765,326,-3000,-415,0,-329,-1574,-1.20,2.05,-2.60,-0.28,0.98,0.07,0.00,0.00,0.00,122.0896832,37.5440841,-0.031,-0.030,-0.027,0.000,122.0896743,37.5440855,-0.040,0.00,1.50,-7.59,-135828340736.000,620.46,25,7,4,0,26,40.0
1754028028.611482,4,3.30,20.29,3.84,0,1100000,11100,000000000,-32765,327,-3000,-205,0,-322,-1563,-0.98,2.01,-2.63,-0.09,1.29,0.06,0.00,0.00,0.00,122.0896832,37.5440841,-0.035,-0.031,-0.029,0.000,122.0896743,37.5440855,-0.040,0.00,1.50,-7.59,-42036835366697964480582898281365897216.000,620.69,25,7,4,0,26,40.0
1754028028.732173,4,3.30,20.29,3.96,0,1100000,11100,000000000,-32765,328,-3000,0,0,-311,-1559,-0.87,2.01,-2.65,0.00,1.12,0.10,0.00,0.00,0.00,122.0896832,37.5440841,-0.040,-0.033,-0.031,0.000,122.0896743,37.5440855,-0.040,0.00,1.50,-7.59,0.000,620.81,25,7,4,0,26,40.0
1754028028.851543,4,3.30,20.40,3.91,0,1100000,11100,000000000,-32765,328,-3000,-159,0,-297,-1570,-0.78,2.01,-2.66,0.00,0.78,0.14,0.00,0.00,0.00,122.0896832,37.5440841,-0.036,-0.034,-0.033,0.000,122.0896743,37.5440855,-0.040,0.00,1.50,-7.63,-42036835366697964480582898281365897216.000,620.60,25,7,4,0,26,40.0
1754028028.971297,4,3.30,20.40,3.87,0,1100000,11100,000000000,-32765,328,-3000,34,0,-279,-1573,-0.71,2.01,-2.65,-0.01,0.43,-0.04,0.00,0.00,0.00,122.0896832,37.5440841,-0.040,-0.035,-0.037,0.000,122.0896743,37.5440855,-0.040,0.00,1.50,-7.66,-42036835366697964480582898281365897216.000,620.36,25,7,4,0,26,40.0
1754028029.096565,4,3.30,20.29,4.28,0,1100000,11100,000000000,-32765,327,-3000,-438,0,-242,-1563,-0.73,1.99,-2.63,-0.14,-0.13,-0.25,0.00,0.00,0.00,122.0896832,37.5440841,-0.031,-0.034,-0.037,0.000,122.0896743,37.5440855,-0.040,0.00,1.50,-7.66,0.000,620.36,25,7,4,0,26,40.0
1754028029.211521,4,3.30,20.40,4.01,0,1100000,11100,000000000,-32765,326,-3000,-1075,0,-168,-1573,-0.93,1.96,-2.60,-0.17,-1.23,-0.02,0.00,0.00,0.00,122.0896832,37.5440841,-0.018,-0.031,-0.033,0.000,122.0896743,37.5440855,-0.040,0.00,1.50,-7.65,0.000,620.36,25,7,4,0,26,41.0
1754028029.331549,4,3.30,20.40,3.88,0,1100000,11100,000000000,-32765,326,-3000,-665,0,-160,-1573,-1.06,1.95,-2.59,-0.03,-1.34,-0.03,0.00,0.00,0.00,122.0896832,37.5440841,-0.026,-0.030,-0.030,0.000,122.0896743,37.5440855,-0.040,0.00,1.50,-7.65,0.000,620.36,25,7,4,0,26,41.0
1754028029.451465,4,3.30,20.29,4.10,0,1100000,11100,000000000,-32765,326,-3000,-972,0,-214,-1572,-1.13,1.98,-2.59,0.37,-0.59,-0.05,0.00,0.00,0.00,122.0896832,37.5440841,-0.020,-0.028,-0.027,0.000,122.0896743,37.5440855,-0.040,0.00,1.50,-7.60,0.000,620.36,25,7,4,0,26,41.0
1754028029.571270,4,3.30,20.29,4.24,0,1100000,11100,000000000,-32765,326,-3000,-584,0,-284,-1569,-1.13,2.04,-2.58,0.62,0.25,-0.12,0.00,0.00,0.00,122.0896832,37.5440841,-0.028,-0.028,-0.024,0.000,122.0896743,37.5440855,-0.040,0.00,1.50,-7.59,-583378281331064569856.000,620.36,25,7,4,0,26,41.0
1754028029.695763,4,3.30,20.29,4.40,0,1100000,11100,000000000,-32765,326,-3000,-910,0,-336,-1565,-1.07,2.09,-2.56,0.54,0.80,-0.20,0.00,0.00,0.00,122.0896832,37.5440841,-0.021,-0.027,-0.023,0.000,122.0896743,37.5440855,-0.040,0.00,1.50,-7.59,-0.000,620.36,25,7,4,0,26,41.0
1754028029.811565,4,3.30,20.40,3.76,0,1100000,11100,000000000,-32765,325,-3000,-723,0,-358,-1571,-0.88,2.13,-2.54,0.01,0.79,-0.08,0.00,0.00,0.00,122.0896832,37.5440841,-0.025,-0.026,-0.024,0.000,122.0896743,37.5440855,-0.040,0.00,1.50,-7.58,-0.000,620.36,25,7,4,0,26,41.0
1754028029.931554,4,3.30,20.40,4.08,0,1100000,11100,000000000,-32765,325,-3000,-1014,0,-355,-1578,-0.78,2.11,-2.54,-0.27,0.97,0.07,0.00,0.00,0.00,122.0896832,37.5440841,-0.019,-0.025,-0.023,0.000,122.0896743,37.5440855,-0.040,0.00,1.50,-7.58,-0.000,620.36,25,7,4,0,26,41.0
1754028030.051556,4,3.30,20.40,4.06,0,1100000,11100,000000000,-32765,325,-3000,-614,0,-342,-1575,-0.70,2.09,-2.55,-0.17,0.92,0.16,0.00,0.00,0.00,122.0896832,37.5440841,-0.027,-0.025,-0.024,0.000,122.0896743,37.5440855,-0.040,0.00,1.50,-7.54,-0.000,620.50,25,7,4,0,26,41.0
1754028030.171283,4,3.30,20.40,3.90,0,1100000,11100,000000000,-32765,326,-3000,-627,0,-311,-1573,-0.65,2.06,-2.57,-0.20,0.57,0.14,0.00,0.00,0.00,122.0896832,37.5440841,-0.027,-0.026,-0.024,0.000,122.0896743,37.5440855,-0.040,0.00,1.50,-7.55,-33161216.000,620.55,25,7,4,0,26,42.0
1754028030.295295,4,3.30,20.29,4.05,0,1100000,11100,000000000,-32765,326,-3000,-320,0,-268,-1566,-0.63,2.04,-2.59,-0.17,-0.07,0.11,0.00,0.00,0.00,122.0896832,37.5440841,-0.033,-0.027,-0.026,0.000,122.0896743,37.5440855,-0.040,0.00,1.50,-7.55,-583378281331064569856.000,620.66,25,7,4,0,26,42.0
1754028030.411569,4,3.30,20.29,4.10,0,1100000,11100,000000000,-32765,327,-3000,-469,0,-273,-1563,-0.64,2.06,-2.62,0.16,-0.17,0.08,0.00,0.00,0.00,122.0896832,37.5440841,-0.030,-0.028,-0.027,0.000,122.0896743,37.5440855,-0.040,0.00,1.50,-7.57,-33161216.000,620.72,25,7,4,0,26,42.0
1754028030.531632,4,3.30,20.29,4.05,0,1100000,11100,000000000,-32765,327,-3000,-204,0,-275,-1559,-0.69,2.08,-2.61,0.26,-0.37,-0.02,0.00,0.00,0.00,122.0896832,37.5440841,-0.036,-0.029,-0.031,0.000,122.0896743,37.5440855,-0.040,0.00,1.50,-7.57,-0.000,620.68,25,7,4,0,26,42.0
1754028030.651520,4,3.30,20.20,4.42,0,1100000,11100,000000000,-32765,327,-3000,-316,0,-268,-1569,-0.76,2.09,-2.60,0.15,-0.61,-0.11,0.00,0.00,0.00,122.0896832,37.5440841,-0.033,-0.030,-0.032,0.000,122.0896743,37.5440855,-0.040,0.00,1.50,-7.62,-0.000,620.36,25,7,4,0,26,42.0
1754028030.771251,4,3.30,20.20,4.23,0,1100000,11100,000000000,-32765,326,-3000,-87,0,-264,-1567,-0.83,2.10,-2.59,-0.02,-0.74,-0.16,0.00,0.00,0.00,122.0896832,37.5440841,-0.038,-0.032,-0.034,0.000,122.0896743,37.5440855,-0.040,0.00,1.50,-7.60,-0.000,620.36,25,7,4,0,26,42.0
