pc_timestamp,mode,temperature,control_voltage,power_current,water_leak,sensor_status,sensor_update,fault_status,power_status,force_cmd1,force_cmd2,force_cmd3,force_cmd4,force_cmd5,force_cmd6,roll,pitch,yaw,angular_vel_x,angular_vel_y,angular_vel_z,linear_vel_x,linear_vel_y,linear_vel_z,longitude,latitude,depth_raw,depth_lpf,depth_ma,altitude,target_longitude,target_latitude,target_depth,target_roll,target_pitch,target_yaw,target_altitude,target_speed,utc_year,utc_month,utc_day,utc_hour,utc_minute,utc_second
1754057266.831250,4,3.92,21.50,2.79,0,1100000,11100,000100000,-32765,0,0,0,0,0,0,-0.54,-3.69,-9.53,-1.01,0.22,0.95,0.01,0.00,0.00,122.0896461,37.5442196,-0.283,-0.283,-0.283,0.000,122.0895840,37.5442066,0.095,0.00,1.50,-151.61,-0.000,620.36,25,7,4,1,34,21.0
1754057266.835637,4,3.92,21.50,3.18,0,1100000,11100,000100000,-32765,0,0,0,0,0,0,-0.52,-3.79,-9.64,-1.03,0.16,1.20,0.01,0.00,0.00,122.0896461,37.5442196,-0.285,-0.283,-0.284,0.000,122.0895840,37.5442066,0.095,0.00,1.50,-151.61,-0.000,620.36,25,7,4,1,34,21.0
1754057266.836906,4,3.92,21.40,3.16,0,1100000,11100,000100000,-32765,0,0,0,0,0,0,-0.46,-3.91,-9.90,-0.47,0.37,1.43,0.01,0.00,0.01,122.0896461,37.5442196,-0.269,-0.281,-0.279,0.000,122.0895840,37.5442066,0.095,0.00,1.50,-151.61,-0.000,620.36,25,7,4,1,34,22.0
1754057266.837937,4,3.92,21.40,3.21,0,1100000,11100,000100000,-32765,0,0,0,0,0,0,-0.40,-3.90,-10.05,0.04,0.48,1.42,0.01,0.00,0.01,122.0896461,37.5442196,-0.275,-0.280,-0.278,0.000,122.0895840,37.5442066,0.095,0.00,1.50,-151.61,-0.000,620.36,25,7,4,1,34,22.0
1754057266.839211,4,3.92,21.40,2.81,0,1100000,11100,000100000,-32765,0,0,0,0,0,0,-0.34,-3.86,-10.18,0.44,0.61,1.26,0.02,0.00,0.01,122.0896461,37.5442197,-0.267,-0.277,-0.276,0.000,122.0895840,37.5442066,0.095,0.00,1.50,-151.61,-0.000,620.36,25,7,4,1,34,22.0
1754057266.841857,4,3.92,21.50,2.83,0,1100000,11100,000100000,-32765,0,0,0,0,0,0,-0.23,-3.78,-10.28,0.80,1.19,0.99,0.02,0.00,0.01,122.0896461,37.5442197,-0.273,-0.276,-0.274,0.000,122.0895840,37.5442066,0.095,0.00,1.50,-151.61,-0.000,620.36,25,7,4,1,34,22.0
1754057266.843175,4,3.92,21.50,2.68,0,1100000,11100,000100000,-32765,0,0,0,0,0,0,-0.08,-3.69,-10.38,0.93,1.49,0.92,0.02,0.00,0.01,122.0896461,37.5442197,-0.278,-0.276,-0.272,0.000,122.0895840,37.5442066,0.095,0.00,1.50,-151.61,-0.000,620.36,25,7,4,1,34,22.0
1754057266.843893,4,3.92,21.50,2.67,0,1100000,11100,000100000,-32765,0,0,0,0,0,0,0.21,-3.47,-10.56,1.09,1.25,0.97,0.02,0.00,0.00,122.0896461,37.5442198,-0.264,-0.274,-0.271,0.000,122.0895840,37.5442066,0.095,0.00,1.50,-151.61,-0.000,620.36,25,7,4,1,34,22.0
1754057266.844576,4,3.92,21.50,2.47,0,1100000,11100,000100000,-32765,0,0,0,0,0,0,0.30,-3.36,-10.67,0.89,0.68,1.11,0.02,0.01,0.00,122.0896461,37.5442198,-0.271,-0.273,-0.270,0.000,122.0895840,37.5442066,0.095,0.00,1.50,-151.61,-0.000,620.36,25,7,4,1,34,22.0
1754057266.845391,4,3.92,21.50,2.09,0,1100000,11100,000100000,-32765,0,0,0,0,0,0,0.32,-3.30,-10.78,0.52,-0.09,1.15,0.02,0.00,0.00,122.0896461,37.5442198,-0.257,-0.270,-0.268,0.000,122.0895840,37.5442066,0.095,0.00,1.50,-151.61,-0.000,620.36,25,7,4,1,34,22.0
1754057266.846127,4,3.92,21.50,2.05,0,1100000,11100,000100000,-32765,0,0,0,0,0,0,0.26,-3.28,-10.87,-0.03,-0.89,0.73,0.01,0.01,0.00,122.0896461,37.5442199,-0.265,-0.269,-0.267,0.000,122.0895840,37.5442066,0.095,0.00,1.50,-151.61,-0.000,620.36,25,7,4,1,34,22.0
1754057266.846800,4,3.92,21.50,2.05,0,1100000,11100,000100000,-32765,0,0,0,0,0,0,0.12,-3.33,-10.88,-0.57,-1.51,-0.21,0.01,0.01,0.00,122.0896462,37.5442199,-0.253,-0.266,-0.262,0.000,122.0895840,37.5442066,0.095,0.00,1.50,-151.61,-0.000,620.36,25,7,4,1,34,23.0
1754057266.847487,4,3.92,21.50,2.06,0,1100000,11100,000100000,-32765,0,0,0,0,0,0,-0.20,-3.45,-10.66,-0.41,-1.42,-1.30,0.00,0.01,0.00,122.0896462,37.5442199,-0.251,-0.263,-0.259,0.000,122.0895840,37.5442066,0.095,0.00,1.50,-151.61,-0.000,620.36,25,7,4,1,34,23.0
1754057266.848213,4,3.92,21.50,2.06,0,1100000,11100,000100000,-32765,0,0,0,0,0,0,-0.31,-3.46,-10.54,0.03,-0.94,-1.18,0.00,0.00,0.00,122.0896462,37.5442199,-0.261,-0.262,-0.257,0.000,122.0895840,37.5442066,0.095,0.00,1.50,-151.61,-0.000,620.36,25,7,4,1,34,23.0
1754057266.848767,4,3.92,21.50,2.05,0,1100000,11100,000100000,-32765,0,0,0,0,0,0,-0.37,-3.44,-10.42,0.42,-0.44,-1.29,0.01,0.01,0.00,122.0896462,37.5442199,-0.256,-0.261,-0.257,0.000,122.0895840,37.5442066,0.095,0.00,1.50,-151.61,-0.000,620.36,25,7,4,1,34,23.0
1754057266.849383,4,3.92,21.50,2.03,0,1100000,11100,000100000,-32765,0,0,0,0,0,0,-0.40,-3.38,-10.28,0.71,-0.09,-1.40,0.01,0.00,0.00,122.0896462,37.5442199,-0.246,-0.258,-0.253,0.000,122.0895840,37.5442066,0.095,0.00,1.50,-151.61,-0.000,620.36,25,7,4,1,34,23.0
1754057266.849927,4,3.92,21.50,2.03,0,1100000,11100,000100000,-32765,0,0,0,0,0,0,-0.41,-3.30,-10.14,0.87,0.05,-1.43,0.02,0.00,0.00,122.0896462,37.5442200,-0.257,-0.258,-0.254,0.000,122.0895840,37.5442066,0.095,0.00,1.50,-151.61,-0.000,620.36,25,7,4,1,34,23.0
1754057266.935841,4,3.92,21.50,1.98,0,1100000,11100,000100000,-32765,0,0,0,0,0,0,-0.38,-3.14,-9.90,0.83,0.19,-0.93,0.02,0.00,0.00,122.0896462,37.5442200,-0.258,-0.258,-0.255,0.000,122.0895840,37.5442066,0.095,0.00,1.50,-151.61,-0.000,620.36,25,7,4,1,34,23.0
1754057267.056331,4,3.92,21.50,1.98,0,1100000,11100,000100000,-32765,0,0,0,0,0,0,-0.36,-3.07,-9.83,0.72,0.20,-0.64,0.02,0.00,0.00,122.0896462,37.5442200,-0.247,-0.256,-0.253,0.000,122.0895840,37.5442066,0.095,0.00,1.50,-151.61,-0.000,620.36,25,7,4,1,34,23.0
1754057267.175789,4,3.92,21.50,1.98,0,1100000,11100,000100000,-32765,0,0,0,0,0,0,-0.35,-3.01,-9.78,0.64,0.11,-0.40,0.02,0.00,0.00,122.0896463,37.5442200,-0.232,-0.251,-0.248,0.000,122.0895840,37.5442066,0.095,0.00,1.50,-151.61,-0.000,620.36,25,7,4,1,34,24.0
1754057267.295908,4,3.92,21.50,1.98,0,1100000,11100,000100000,-32765,0,0,0,0,0,0,-0.35,-2.94,-9.75,0.68,-0.02,-0.32,0.02,0.01,0.00,122.0896463,37.5442200,-0.221,-0.245,-0.243,0.000,122.0895840,37.5442066,0.095,0.00,1.50,-151.61,-0.000,620.36,25,7,4,1,34,24.0
1754057267.420122,4,3.92,21.50,1.98,0,1100000,11100,000100000,-32765,0,0,0,0,0,0,-0.36,-2.86,-9.71,0.82,-0.11,-0.34,0.02,0.01,0.00,122.0896463,37.5442200,-0.213,-0.239,-0.234,0.000,122.0895840,37.5442066,0.095,0.00,1.50,-151.61,-0.000,620.36,25,7,4,1,34,24.0
1754057267.535959,4,4.02,21.50,1.98,0,1100000,11100,000100000,-32765,0,0,0,0,0,0,-0.43,-2.65,-9.64,1.28,-0.39,-0.44,0.02,0.01,0.00,122.0896463,37.5442200,-0.218,-0.234,-0.226,0.000,122.0895840,37.5442066,0.095,0.00,1.50,-151.61,-0.000,620.36,25,7,4,1,34,24.0
1754057267.655885,4,4.02,21.50,1.94,0,1100000,11100,000100000,-32765,0,0,0,0,0,0,-0.47,-2.51,-9.59,1.46,-0.46,-0.40,0.03,0.01,0.00,122.0896463,37.5442200,-0.236,-0.235,-0.224,0.000,122.0895840,37.5442066,0.095,0.00,1.50,-151.61,-0.000,620.36,25,7,4,1,34,24.0
1754057267.775786,4,4.02,21.50,1.94,0,1100000,11100,000100000,-32765,0,0,0,0,0,0,-0.51,-2.36,-9.55,1.46,-0.31,-0.39,0.00,-0.01,0.00,122.0896463,37.5442202,-0.230,-0.234,-0.224,0.000,122.0895840,37.5442066,0.095,0.00,1.50,-151.61,-0.000,620.36,25,7,4,1,34,24.0
1754057267.895970,4,4.02,21.50,1.94,0,1100000,11100,000100000,-32765,0,0,0,0,0,0,-0.52,-2.23,-9.53,1.26,0.15,-0.26,0.00,-0.01,0.00,122.0896463,37.5442202,-0.226,-0.232,-0.225,0.000,122.0895840,37.5442066,0.095,0.00,1.50,-151.61,-0.000,620.36,25,7,4,1,34,24.0
1754057268.024719,4,4.02,21.50,1.94,0,1100000,11100,000100000,-32765,0,0,0,0,0,0,-0.45,-2.13,-9.51,0.89,0.81,-0.11,0.00,-0.01,0.00,122.0896463,37.5442202,-0.217,-0.229,-0.225,0.000,122.0895840,37.5442066,0.095,0.00,1.50,-151.61,626000348204498944.000,620.36,25,7,4,1,34,24.0
1754057268.135903,4,4.02,21.50,1.93,0,1100000,11100,000100000,-32765,0,0,0,0,0,0,-0.25,-2.02,-9.53,0.44,0.92,0.17,0.02,0.00,0.00,122.0896462,37.5442202,-0.223,-0.228,-0.226,0.000,122.0895840,37.5442066,0.095,0.00,1.50,-151.61,0.000,620.36,25,7,4,1,34,25.0
1754057268.255890,4,4.02,21.50,1.95,0,1100000,11100,000100000,-32765,0,0,0,0,0,0,-0.20,-1.97,-9.55,0.46,0.26,0.23,0.02,0.00,0.00,122.0896462,37.5442202,-0.214,-0.225,-0.222,0.000,122.0895840,37.5442066,0.095,0.00,1.50,-151.61,-2485986994308513792.000,620.36,25,7,4,1,34,25.0
1754057268.375883,4,4.02,21.50,1.95,0,1100000,11100,000100000,-32765,0,0,0,0,0,0,-0.23,-1.92,-9.58,0.62,-0.47,0.26,0.03,0.01,0.00,122.0896463,37.5442203,-0.233,-0.227,-0.223,0.000,122.0895840,37.5442066,0.095,0.00,1.50,-151.61,-0.000,620.36,25,7,4,1,34,25.0
1754057268.495984,4,4.02,21.50,1.93,0,1100000,11100,000100000,-32765,0,0,0,0,0,0,-0.32,-1.84,-9.60,0.89,-1.03,0.28,0.03,0.02,0.00,122.0896463,37.5442203,-0.247,-0.231,-0.227,0.000,122.0895840,37.5442066,0.095,0.00,1.50,-151.61,170835725421382477936079142912.000,620.36,25,7,4,1,34,25.0
1754057268.620177,4,4.02,21.50,1.93,0,1100000,11100,000100000,-32765,0,0,0,0,0,0,-0.44,-1.73,-9.63,1.18,-1.19,0.27,0.02,0.01,0.00,122.0896463,37.5442204,-0.258,-0.236,-0.235,0.000,122.0895840,37.5442066,0.095,0.00,1.50,-151.61,0.000,620.36,25,7,4,1,34,25.0
1754057268.736019,4,4.02,21.50,1.93,0,1100000,11100,000100000,-32765,0,0,0,0,0,0,-0.65,-1.43,-9.67,1.61,-0.89,0.19,0.03,0.01,0.00,122.0896463,37.5442204,-0.220,-0.233,-0.235,0.000,122.0895840,37.5442066,0.095,0.00,1.50,-151.61,0.000,620.36,25,7,4,1,34,25.0
1754057268.855835,4,4.02,21.50,1.92,0,1100000,11100,000100000,-32765,0,0,0,0,0,0,-0.73,-1.27,-9.70,1.60,-0.80,0.20,0.03,0.01,0.00,122.0896463,37.5442205,-0.212,-0.229,-0.234,0.000,122.0895840,37.5442066,0.095,0.00,1.50,-151.61,-0.000,620.36,25,7,4,1,34,25.0
1754057268.975895,4,4.02,21.50,1.92,0,1100000,11100,000100000,-32765,0,0,0,0,0,0,-0.81,-1.13,-9.72,1.39,-0.86,0.29,0.03,0.01,0.00,122.0896463,37.5442205,-0.206,-0.224,-0.229,0.000,122.0895840,37.5442066,0.095,0.00,1.50,-151.61,0.000,620.36,25,7,4,1,34,25.0
1754057269.096030,4,4.02,21.50,1.93,0,1100000,11100,000100000,-32765,0,0,0,0,0,0,-0.92,-1.01,-9.77,1.08,-1.10,0.50,0.03,0.01,0.00,122.0896463,37.5442205,-0.207,-0.221,-0.221,0.000,122.0895840,37.5442066,0.095,0.00,1.50,-151.61,-151996487423754240.000,620.36,25,7,4,1,34,25.0
1754057269.223754,4,4.02,21.50,1.93,0,1100000,11100,000100000,-32765,0,0,0,0,0,0,-1.05,-0.93,-9.83,0.81,-1.37,0.74,0.02,0.01,0.00,122.0896463,37.5442206,-0.190,-0.215,-0.207,0.000,122.0895840,37.5442066,0.095,0.00,1.50,-151.61,-0.000,620.36,25,7,4,1,34,26.0
1754057269.336016,4,4.02,21.50,1.93,0,1100000,11100,000100000,-32765,0,0,0,0,0,0,-1.35,-0.76,-10.01,1.01,-1.45,0.94,0.02,0.01,0.00,122.0896464,37.5442206,-0.219,-0.215,-0.207,0.000,122.0895840,37.5442066,0.095,0.00,1.50,-151.61,0.000,620.36,25,7,4,1,34,26.0
1754057269.455924,4,4.02,21.50,1.96,0,1100000,11100,000100000,-32765,0,0,0,0,0,0,-1.47,-0.63,-10.10,1.43,-1.01,0.76,0.02,0.01,0.00,122.0896464,37.5442206,-0.211,-0.215,-0.206,0.000,122.0895840,37.5442066,0.095,0.00,1.50,-151.61,-0.000,620.36,25,7,4,1,34,26.0
1754057269.575878,4,4.02,21.50,1.96,0,1100000,11100,000100000,-32765,0,0,0,0,0,0,-1.52,-0.45,-10.16,1.92,-0.34,0.52,0.02,0.01,0.00,122.0896464,37.5442206,-0.192,-0.210,-0.204,0.000,122.0895840,37.5442066,0.095,0.00,1.50,-151.61,0.000,620.36,25,7,4,1,34,26.0
1754057269.759264,4,4.02,21.50,1.97,0,1100000,11100,000100000,-32765,0,0,0,0,0,0,-1.50,-0.24,-10.20,2.24,0.36,0.27,0.03,0.01,0.00,122.0896464,37.5442206,-0.178,-0.204,-0.198,0.000,122.0895840,37.5442066,0.095,0.00,1.50,-151.61,658584100899822306246334087168.000,620.36,25,7,4,1,34,26.0
1754057269.814203,4,4.02,21.50,1.96,0,1100000,11100,000100000,-32765,0,0,0,0,0,0,-1.43,-0.01,-10.22,2.29,0.81,0.19,0.03,0.01,0.00,122.0896464,37.5442206,-0.180,-0.199,-0.196,0.000,122.0895840,37.5442066,0.095,0.00,1.50,-151.61,-0.000,620.36,25,7,4,1,34,26.0
1754057269.936179,4,4.02,21.50,1.95,0,1100000,11100,000100000,-32765,0,0,0,0,0,0,-1.26,0.30,-10.25,0.94,0.67,-0.16,0.02,0.01,0.00,122.0896464,37.5442208,-0.160,-0.191,-0.184,0.000,122.0895840,37.5442066,0.095,0.00,1.50,-151.61,-0.000,620.36,25,7,4,1,34,26.0
1754057270.056482,4,4.02,21.50,1.94,0,1100000,11100,000100000,-32765,0,0,0,0,0,0,-1.21,0.31,-10.21,-0.07,0.40,-0.52,0.02,0.00,0.00,122.0896464,37.5442208,-0.173,-0.188,-0.177,0.000,122.0895840,37.5442066,0.095,0.00,1.50,-151.61,-0.000,620.36,25,7,4,1,34,26.0
1754057270.175871,4,4.02,21.50,1.64,0,1100000,11100,000100000,-32765,0,0,0,0,0,0,-1.19,0.26,-10.14,-0.61,0.24,-0.65,0.02,0.00,0.00,122.0896464,37.5442208,-0.163,-0.183,-0.171,0.000,122.0895840,37.5442066,0.095,0.00,1.50,-151.61,-576144092954624.000,620.36,25,7,4,1,34,27.0
1754057270.296081,4,4.02,21.50,1.61,0,1100000,11100,000100000,-32765,0,0,0,0,0,0,-1.15,0.19,-10.08,-0.74,0.31,-0.60,0.01,0.00,0.00,122.0896464,37.5442208,-0.156,-0.177,-0.166,0.000,122.0895840,37.5442066,0.095,0.00,1.50,-151.61,0.000,620.36,25,7,4,1,34,27.0
1754057270.422807,4,4.02,21.50,1.60,0,1100000,11100,000100000,-32765,0,0,0,0,0,0,-1.09,0.12,-10.01,-0.66,0.71,-0.65,0.01,0.00,0.00,122.0896464,37.5442209,-0.176,-0.177,-0.166,0.000,122.0895840,37.5442066,0.095,0.00,1.50,-151.61,2162688.000,620.36,25,7,4,1,34,27.0
1754057270.536059,4,4.02,21.50,1.60,0,1100000,11100,000100000,-32765,0,0,0,0,0,0,-0.84,0.08,-9.85,0.07,1.47,-1.00,0.02,0.00,0.00,122.0896464,37.5442209,-0.192,-0.180,-0.172,0.000,122.0895840,37.5442066,0.095,0.00,1.50,-151.61,10213005324104387267917774848.000,620.36,25,7,4,1,34,27.0
1754057270.656093,4,4.02,21.50,1.61,0,1100000,11100,000100000,-32765,0,0,0,0,0,0,-0.69,0.11,-9.75,0.39,1.44,-1.04,0.02,0.00,0.00,122.0896464,37.5442209,-0.216,-0.187,-0.181,0.000,122.0895840,37.5442066,0.095,0.00,1.50,-151.61,566935683072.000,620.36,25,7,4,1,34,27.0
1754057270.775902,4,4.02,21.50,1.61,0,1100000,11100,000100000,-32765,0,0,0,0,0,0,-0.57,0.16,-9.65,0.49,1.07,-0.89,0.02,0.00,0.00,122.0896464,37.5442210,-0.215,-0.193,-0.191,0.000,122.0895840,37.5442066,0.095,0.00,1.50,-151.61,0.000,620.36,25,7,4,1,34,27.0
1754057270.896086,4,4.02,21.50,1.61,0,1100000,11100,000100000,-32765,0,0,0,0,0,0,-0.51,0.20,-9.58,0.33,0.48,-0.67,0.03,0.00,0.00,122.0896464,37.5442210,-0.234,-0.201,-0.207,0.000,122.0895840,37.5442066,0.095,0.00,1.50,-151.61,0.000,620.36,25,7,4,1,34,27.0
1754057271.020212,4,4.02,21.50,1.61,0,1100000,11100,000100000,-32765,0,0,0,0,0,0,-0.51,0.21,-9.53,0.01,-0.22,-0.39,0.03,0.00,0.00,122.0896464,37.5442210,-0.229,-0.207,-0.217,0.000,122.0895840,37.5442066,0.095,0.00,1.50,-151.61,0.000,620.36,25,7,4,1,34,27.0
1754057271.136033,4,4.02,21.50,1.61,0,1100000,11100,000100000,-32765,0,0,0,0,0,0,-0.69,0.12,-9.49,-0.65,-1.12,-0.12,0.03,0.00,0.00,122.0896464,37.5442211,-0.217,-0.209,-0.222,0.000,122.0895840,37.5442066,0.095,0.00,1.50,-151.61,2162688.000,620.36,25,7,4,1,34,28.0
1754057271.255515,4,4.02,21.50,1.63,0,1100000,11100,000100000,-32765,0,0,0,0,0,0,-0.80,0.05,-9.48,-0.72,-1.13,-0.16,0.03,0.01,0.00,122.0896464,37.5442211,-0.210,-0.209,-0.221,0.000,122.0895840,37.5442066,0.095,0.00,1.50,-151.61,-0.000,620.36,25,7,4,1,34,28.0
1754057271.375919,4,4.02,21.50,1.63,0,1100000,11100,000100000,-32765,0,0,0,0,0,0,-0.90,0.00,-9.44,-0.62,-0.88,-0.32,0.02,0.01,0.00,122.0896464,37.5442211,-0.236,-0.214,-0.225,0.000,122.0895840,37.5442066,0.095,0.00,1.50,-151.61,-0.000,620.36,25,7,4,1,34,28.0
1754057271.496106,4,4.02,21.50,1.61,0,1100000,11100,000100000,-32765,0,0,0,0,0,0,-0.96,-0.05,-9.40,-0.42,-0.54,-0.47,0.02,0.01,0.00,122.0896464,37.5442211,-0.237,-0.219,-0.226,0.000,122.0895840,37.5442066,0.095,0.00,1.50,-151.61,-37154696925806592.000,620.36,25,7,4,1,34,28.0
1754057271.623798,4,4.12,21.50,1.61,0,1100000,11100,000100000,-32765,0,0,0,0,0,0,-1.00,-0.07,-9.34,-0.20,-0.36,-0.57,0.02,0.00,0.00,122.0896464,37.5442211,-0.257,-0.226,-0.231,0.000,122.0895840,37.5442066,0.095,0.00,1.50,-151.61,-2553251331026096816979443712.000,620.36,25,7,4,1,34,28.0
1754057271.736134,4,4.12,21.50,1.63,0,1100000,11100,000100000,-32765,0,0,0,0,0,0,-1.09,-0.08,-9.23,-0.04,-0.64,-0.46,0.02,0.00,0.00,122.0896464,37.5442212,-0.264,-0.234,-0.241,0.000,122.0895840,37.5442066,0.095,0.00,1.50,-151.61,-669319516920505123990259292438528.000,620.36,25,7,4,1,34,28.0
1754057271.856045,4,4.12,21.50,1.60,0,1100000,11100,000100000,-32765,0,0,0,0,0,0,-1.18,-0.10,-9.20,-0.30,-0.83,-0.26,0.02,0.00,0.00,122.0896464,37.5442212,-0.271,-0.241,-0.253,0.000,122.0895840,37.5442066,0.095,0.00,1.50,-151.61,0.000,620.36,25,7,4,1,34,28.0
1754057271.975981,4,4.12,21.50,1.60,0,1100000,11100,000100000,-32765,0,0,0,0,0,0,-1.26,-0.17,-9.18,-0.66,-0.89,-0.08,0.02,0.00,0.00,122.0896464,37.5442212,-0.257,-0.245,-0.257,0.000,122.0895840,37.5442066,0.095,0.00,1.50,-151.61,0.000,620.36,25,7,4,1,34,28.0
1754057272.096043,4,4.12,21.50,1.61,0,1100000,11100,000100000,-32765,0,0,0,0,0,0,-1.35,-0.25,-9.18,-0.95,-0.85,0.09,0.01,0.00,0.00,122.0896464,37.5442212,-0.266,-0.249,-0.263,0.000,122.0895840,37.5442066,0.095,0.00,1.50,-151.61,44196830859848452774051584754321457152.000,620.36,25,7,4,1,34,28.0
1754057272.220623,4,4.12,21.50,1.61,0,1100000,11100,000100000,-32765,0,0,0,0,0,0,-1.41,-0.36,-9.19,-1.01,-0.33,0.07,0.01,0.00,0.00,122.0896464,37.5442212,-0.272,-0.253,-0.266,0.000,122.0895840,37.5442066,0.095,0.00,1.50,-151.61,-142807662592.000,620.36,25,7,4,1,34,29.0
1754057272.336044,4,4.12,21.50,1.61,0,1100000,11100,000100000,-32765,0,0,0,0,0,0,-1.21,-0.47,-9.09,-0.25,1.51,-0.97,0.00,0.00,0.00,122.0896465,37.5442212,-0.292,-0.261,-0.272,0.000,122.0895840,37.5442066,0.095,0.00,1.50,-151.61,0.000,620.36,25,7,4,1,34,29.0
1754057272.456054,4,4.12,21.50,1.61,0,1100000,11100,000100000,-32765,0,0,0,0,0,0,-1.08,-0.46,-8.94,0.29,1.04,-1.55,0.00,0.00,0.00,122.0896465,37.5442212,-0.267,-0.262,-0.271,0.000,122.0895840,37.5442066,0.095,0.00,1.50,-151.61,0.000,620.36,25,7,4,1,34,29.0
1754057272.576033,4,4.12,21.50,1.61,0,1100000,11100,000100000,-32765,0,0,0,0,0,0,-1.04,-0.39,-8.76,0.85,0.20,-2.02,0.00,0.00,0.00,122.0896465,37.5442214,-0.280,-0.266,-0.275,0.000,122.0895840,37.5442066,0.095,0.00,1.50,-151.61,-2512298968886651253686272.000,620.36,25,7,4,1,34,29.0
1754057272.696154,4,4.12,21.50,1.64,0,1100000,11100,000100000,-32765,0,0,0,0,0,0,-1.06,-0.26,-8.53,1.32,-0.31,-2.28,0.00,0.00,0.00,122.0896465,37.5442214,-0.257,-0.264,-0.274,0.000,122.0895840,37.5442066,0.095,0.00,1.50,-151.61,-0.000,620.36,25,7,4,1,34,29.0
1754057272.822885,4,4.12,21.50,1.64,0,1100000,11100,000100000,-32765,0,0,0,0,0,0,-1.10,-0.10,-8.31,1.57,-0.48,-2.21,0.00,0.00,0.00,122.0896464,37.5442214,-0.266,-0.264,-0.272,0.000,122.0895840,37.5442066,0.095,0.00,1.50,-151.61,0.000,620.36,25,7,4,1,34,29.0
1754057272.936041,4,4.12,21.50,1.62,0,1100000,11100,000100000,-32765,0,0,0,0,0,0,-1.17,0.14,-7.91,0.84,-0.25,-1.88,0.01,0.00,0.00,122.0896464,37.5442214,-0.239,-0.259,-0.262,0.000,122.0895840,37.5442066,0.095,0.00,1.50,-151.61,0.032,620.36,25,7,4,1,34,29.0
1754057273.056663,4,4.12,21.50,1.61,0,1100000,11100,000100000,-32765,0,0,0,0,0,0,-1.18,0.18,-7.75,0.27,-0.18,-1.58,0.01,0.00,0.00,122.0896464,37.5442214,-0.226,-0.253,-0.253,0.000,122.0895840,37.5442066,0.095,0.00,1.50,-151.61,0.000,620.36,25,7,4,1,34,29.0
1754057273.175914,4,4.12,21.50,1.61,0,1100000,11100,000100000,-32765,0,0,0,0,0,0,-1.18,0.19,-7.60,-0.02,0.00,-1.42,0.00,0.00,0.00,122.0896464,37.5442214,-0.216,-0.245,-0.241,0.000,122.0895840,37.5442066,0.095,0.00,1.50,-151.61,0.000,620.36,25,7,4,1,34,30.0
1754057273.296202,4,4.12,21.50,1.61,0,1100000,11100,000100000,-32765,0,0,0,0,0,0,-1.17,0.19,-7.46,0.00,0.07,-1.34,0.00,0.00,0.00,122.0896464,37.5442214,-0.235,-0.243,-0.236,0.000,122.0895840,37.5442066,0.095,0.00,1.50,-151.61,0.000,620.36,25,7,4,1,34,30.0
1754057273.420408,4,4.12,21.50,1.61,0,1100000,11100,000100000,-32765,0,0,0,0,0,0,-1.15,0.20,-7.32,0.17,0.26,-1.38,0.00,0.00,0.00,122.0896464,37.5442214,-0.230,-0.241,-0.229,0.000,122.0895840,37.5442066,0.095,0.00,1.50,-151.61,0.000,620.36,25,7,4,1,34,30.0
1754057273.536197,4,4.12,21.50,1.61,0,1100000,11100,000100000,-32765,0,0,0,0,0,0,-1.05,0.30,-7.03,0.56,0.54,-1.49,0.00,0.00,0.00,122.0896464,37.5442214,-0.242,-0.241,-0.230,0.000,122.0895840,37.5442066,0.095,0.00,1.50,-151.61,-0.128,620.36,25,7,4,1,34,30.0
1754057273.656129,4,4.12,21.50,1.60,0,1100000,11100,000100000,-32765,0,0,0,0,0,0,-0.98,0.36,-6.88,0.59,0.59,-1.50,0.00,0.00,0.00,122.0896464,37.5442214,-0.235,-0.240,-0.232,0.000,122.0895840,37.5442066,0.095,0.00,1.50,-151.61,-0.000,620.36,25,7,4,1,34,30.0
1754057273.775938,4,4.12,21.50,1.60,0,1100000,11100,000100000,-32765,0,0,0,0,0,0,-0.92,0.42,-6.74,0.53,0.58,-1.38,0.00,0.00,0.00,122.0896464,37.5442215,-0.211,-0.234,-0.230,0.000,122.0895840,37.5442066,0.095,0.00,1.50,-151.61,589971551185534976.000,620.36,25,7,4,1,34,30.0
1754057273.896235,4,4.12,21.50,1.62,0,1100000,11100,000100000,-32765,0,0,0,0,0,0,-0.86,0.46,-6.61,0.32,0.63,-1.24,0.00,-0.01,0.00,122.0896464,37.5442215,-0.211,-0.229,-0.226,0.000,122.0895840,37.5442066,0.095,0.00,1.50,-151.61,0.128,620.36,25,7,4,1,34,30.0
1754057274.023983,4,4.12,21.50,1.62,0,1100000,11100,000100000,-32765,0,0,0,0,0,0,-0.79,0.47,-6.50,0.08,0.75,-1.15,0.00,0.00,0.00,122.0896464,37.5442215,-0.237,-0.231,-0.227,0.000,122.0895840,37.5442066,0.095,0.00,1.50,-151.61,0.000,620.36,25,7,4,1,34,30.0
1754057274.136230,4,4.12,21.50,1.62,0,1100000,11100,000100000,-32765,0,0,0,0,0,0,-0.63,0.45,-6.28,-0.21,0.77,-1.06,0.00,0.00,0.00,122.0896464,37.5442215,-0.261,-0.237,-0.231,0.000,122.0895840,37.5442066,0.095,0.00,1.50,-151.61,131.000,620.36,25,7,4,1,34,31.0
1754057274.256122,4,4.12,21.50,1.61,0,1100000,11100,000100000,-32765,0,0,0,0,0,0,-0.57,0.43,-6.18,-0.23,0.47,-1.05,0.00,0.00,0.00,122.0896464,37.5442215,-0.268,-0.243,-0.238,0.000,122.0895840,37.5442066,0.095,0.00,1.50,-151.61,8791261184.000,620.36,25,7,4,1,34,31.0
1754057274.376005,4,4.12,21.50,1.61,0,1100000,11100,000100000,-32765,0,0,0,0,0,0,-0.56,0.41,-6.08,-0.16,-0.02,-1.00,0.00,0.00,0.00,122.0896464,37.5442215,-0.255,-0.246,-0.247,0.000,122.0895840,37.5442066,0.095,0.00,1.50,-151.61,604130868413987815424.000,620.36,25,7,4,1,34,31.0
1754057274.496138,4,4.12,21.50,1.66,0,1100000,11100,000100000,-32765,0,0,0,0,0,0,-0.60,0.41,-5.98,-0.11,-0.67,-0.90,0.00,0.00,0.00,122.0896464,37.5442215,-0.239,-0.244,-0.252,0.000,122.0895840,37.5442066,0.095,0.00,1.50,-151.61,154657502313980880748544.000,620.36,25,7,4,1,34,31.0
1754057274.620411,4,4.12,21.50,1.66,0,1100000,11100,000100000,-32765,0,0,0,0,0,0,-0.70,0.40,-5.90,-0.11,-1.12,-0.83,0.00,0.00,0.00,122.0896464,37.5442215,-0.265,-0.248,-0.258,0.000,122.0895840,37.5442066,0.095,0.00,1.50,-151.61,40542536286596204002946318336.000,620.36,25,7,4,1,34,31.0
1754057274.759385,4,4.12,21.50,1.66,0,1100000,11100,000100000,-32765,0,0,0,0,0,0,-0.97,0.39,-5.75,-0.01,-1.17,-0.73,0.00,0.00,0.00,122.0896464,37.5442215,-0.257,-0.250,-0.257,0.000,122.0895840,37.5442066,0.095,0.00,1.50,-151.61,2656995658078368825537089918468096.000,620.36,25,7,4,1,34,31.0
1754057274.855291,4,4.12,21.50,1.67,0,1100000,11100,000100000,-32765,0,0,0,0,0,0,-1.05,0.40,-5.66,0.13,-0.79,-0.80,0.00,0.00,0.00,122.0896464,37.5442215,-0.227,-0.246,-0.249,0.000,122.0895840,37.5442066,0.095,0.00,1.50,-151.61,40542536286596204002946318336.000,620.36,25,7,4,1,34,31.0
1754057274.976065,4,4.12,21.50,1.67,0,1100000,11100,000100000,-32765,0,0,0,0,0,0,-1.10,0.43,-5.58,0.39,-0.40,-0.88,0.00,0.00,0.00,122.0896464,37.5442215,-0.205,-0.237,-0.238,0.000,122.0895840,37.5442066,0.095,0.00,1.50,-151.61,2250562863104.000,620.36,25,7,4,1,34,31.0
1754057275.096219,4,4.12,21.50,1.62,0,1100000,11100,000100000,-32765,0,0,0,0,0,0,-1.12,0.49,-5.48,0.60,-0.09,-1.01,0.00,0.01,0.00,122.0896464,37.5442215,-0.207,-0.231,-0.232,0.000,122.0895840,37.5442066,0.095,0.00,1.50,-151.61,0.000,620.36,25,7,4,1,34,31.0
1754057275.223025,4,4.12,21.50,1.62,0,1100000,11100,000100000,-32765,0,0,0,0,0,0,-1.13,0.56,-5.38,0.67,-0.20,-0.98,0.00,0.01,0.00,122.0896464,37.5442215,-0.208,-0.227,-0.221,0.000,122.0895840,37.5442066,0.095,0.00,1.50,-151.61,-157160356549901792711802880.000,620.36,25,7,4,1,34,32.0
1754057275.336264,4,4.12,21.50,1.61,0,1100000,11100,000100000,-32765,0,0,0,0,0,0,-1.25,0.67,-5.21,0.36,-0.89,-0.77,0.00,0.00,0.00,122.0896464,37.5442215,-0.210,-0.223,-0.212,0.000,122.0895840,37.5442066,0.095,0.00,1.50,-151.61,-0.000,620.36,25,7,4,1,34,32.0
1754057275.455723,4,4.12,21.50,1.67,0,1100000,11100,000100000,-32765,0,0,0,0,0,0,-1.38,0.70,-5.14,0.34,-1.51,-0.55,0.00,0.00,0.00,122.0896464,37.5442215,-0.204,-0.220,-0.207,0.000,122.0895840,37.5442066,0.095,0.00,1.50,-151.61,10799977465752441467343432364777799680.000,620.36,25,7,4,1,34,32.0
1754057275.576159,4,4.12,21.50,1.67,0,1100000,11100,000100000,-32765,0,0,0,0,0,0,-1.56,0.74,-5.10,0.44,-1.93,-0.39,0.00,0.00,0.01,122.0896464,37.5442215,-0.213,-0.218,-0.209,0.000,122.0895840,37.5442066,0.095,0.00,1.50,-151.61,9147936743096320.000,620.36,25,7,4,1,34,32.0
1754057275.696322,4,4.12,21.50,1.61,0,1100000,11100,000100000,-32765,0,0,0,0,0,0,-1.75,0.81,-5.06,0.77,-1.79,-0.31,0.00,0.00,0.01,122.0896464,37.5442215,-0.219,-0.218,-0.211,0.000,122.0895840,37.5442066,0.095,0.00,1.50,-151.61,0.000,620.36,25,7,4,1,34,32.0
1754057275.820397,4,4.12,21.50,1.61,0,1100000,11100,000100000,-32765,0,0,0,0,0,0,-1.88,0.92,-5.03,1.21,-1.15,-0.29,0.00,0.00,0.01,122.0896464,37.5442215,-0.218,-0.218,-0.213,0.000,122.0895840,37.5442066,0.095,0.00,1.50,-151.61,-528384.000,620.36,25,7,4,1,34,32.0
1754057275.936305,4,4.12,21.50,1.61,0,1100000,11100,000100000,-32765,0,0,0,0,0,0,-1.83,1.29,-4.97,2.04,1.06,-0.38,0.00,0.00,0.00,122.0896464,37.5442215,-0.216,-0.218,-0.214,0.000,122.0895840,37.5442066,0.095,0.00,1.50,-151.61,-0.000,620.36,25,7,4,1,34,32.0
1754057276.056891,4,4.12,21.50,1.61,0,1100000,11100,000100000,-32765,0,0,0,0,0,0,-1.66,1.50,-4.94,2.11,1.72,-0.38,0.00,0.00,0.00,122.0896464,37.5442215,-0.209,-0.216,-0.215,0.000,122.0895840,37.5442066,0.095,0.00,1.50,-151.61,-10592285591411048362202212511608995840.000,620.36,25,7,4,1,34,32.0
1754057276.176124,4,4.12,21.50,1.61,0,1100000,11100,000100000,-32765,0,0,0,0,0,0,-1.51,1.69,-4.93,1.86,1.45,-0.14,0.00,0.00,0.00,122.0896464,37.5442215,-0.229,-0.219,-0.218,0.000,122.0895840,37.5442066,0.095,0.00,1.50,-151.61,9407839477591871324160.000,620.36,25,7,4,1,34,33.0
1754057276.296376,4,4.12,21.50,1.63,0,1100000,11100,000100000,-32765,0,0,0,0,0,0,-1.41,1.85,-4.95,1.49,0.85,0.23,0.00,0.00,0.00,122.0896464,37.5442215,-0.244,-0.224,-0.223,0.000,122.0895840,37.5442066,0.095,0.00,1.50,-151.61,-9370945989444452220928.000,620.36,25,7,4,1,34,33.0
1754057276.425092,4,4.12,21.50,1.63,0,1100000,11100,000100000,-32765,0,0,0,0,0,0,-1.37,1.95,-5.00,0.78,0.23,0.53,0.00,0.00,0.00,122.0896464,37.5442215,-0.218,-0.222,-0.223,0.000,122.0895840,37.5442066,0.095,0.00,1.50,-151.61,-0.000,620.36,25,7,4,1,34,33.0
1754057276.536352,4,4.12,21.50,1.64,0,1100000,11100,000100000,-32765,0,0,0,0,0,0,-1.44,1.93,-5.15,-0.28,-0.61,0.81,0.00,0.00,0.00,122.0896464,37.5442215,-0.249,-0.228,-0.230,0.000,122.0895840,37.5442066,0.095,0.00,1.50,-151.61,-0.000,620.36,25,7,4,1,34,33.0
1754057276.656179,4,4.12,21.50,1.64,0,1100000,11100,000100000,-32765,0,0,0,0,0,0,-1.53,1.90,-5.21,-0.33,-0.90,0.62,0.00,0.00,0.01,122.0896464,37.5442215,-0.247,-0.232,-0.237,0.000,122.0895840,37.5442066,0.095,0.00,1.50,-151.61,-0.031,620.36,25,7,4,1,34,33.0
1754057276.776123,4,4.12,21.50,1.64,0,1100000,11100,000100000,-32765,0,0,0,0,0,0,-1.65,1.88,-5.26,-0.10,-1.28,0.47,0.00,0.00,0.01,122.0896464,37.5442215,-0.258,-0.237,-0.243,0.000,122.0895840,37.5442066,0.095,0.00,1.50,-151.61,-532676608.000,620.36,25,7,4,1,34,33.0
1754057276.896277,4,4.12,21.50,1.64,0,1100000,11100,000100000,-32765,0,0,0,0,0,0,-1.80,1.90,-5.29,0.31,-1.50,0.25,0.00,0.00,0.01,122.0896464,37.5442215,-0.247,-0.239,-0.244,0.000,122.0895840,37.5442066,0.095,0.00,1.50,-151.61,-7.938,620.36,25,7,4,1,34,33.0
1754057277.020526,4,4.12,21.50,1.64,0,1100000,11100,000100000,-32765,0,0,0,0,0,0,-1.96,1.98,-5.30,0.94,-1.70,0.14,-0.01,0.00,0.00,122.0896464,37.5442215,-0.258,-0.243,-0.252,0.000,122.0895840,37.5442066,0.095,0.00,1.50,-151.61,168811955464684315858783496655603761152.000,620.36,25,7,4,1,34,33.0
1754057277.136380,4,4.12,21.50,1.61,0,1100000,11100,000100000,-32765,0,0,0,0,0,0,-2.27,2.27,-5.35,1.71,-1.30,0.25,0.00,0.00,0.01,122.0896464,37.5442214,-0.246,-0.243,-0.251,0.000,122.0895840,37.5442066,0.095,0.00,1.50,-151.61,-0.000,620.36,25,7,4,1,34,34.0
1754057277.256268,4,4.12,21.50,1.61,0,1100000,11100,000100000,-32765,0,0,0,0,0,0,-2.37,2.44,-5.37,1.71,-0.94,0.27,0.00,0.00,0.01,122.0896464,37.5442215,-0.238,-0.242,-0.249,0.000,122.0895840,37.5442066,0.095,0.00,1.50,-151.61,0.000,620.36,25,7,4,1,34,34.0
1754057277.376157,4,4.12,21.50,1.61,0,1100000,11100,000100000,-32765,0,0,0,0,0,0,-2.44,2.60,-5.41,1.46,-0.54,0.28,0.00,0.00,0.01,122.0896464,37.5442215,-0.257,-0.245,-0.249,0.000,122.0895840,37.5442066,0.095,0.00,1.50,-151.61,-0.000,620.36,25,7,4,1,34,34.0
1754057277.496355,4,4.12,21.50,1.62,0,1100000,11100,000100000,-32765,0,0,0,0,0,0,-2.47,2.71,-5.44,1.08,-0.11,0.29,0.00,0.00,0.01,122.0896464,37.5442215,-0.247,-0.246,-0.249,0.000,122.0895840,37.5442066,0.095,0.00,1.50,-151.61,0.000,620.36,25,7,4,1,34,34.0
1754057277.623978,4,4.12,21.50,1.62,0,1100000,11100,000100000,-32765,0,0,0,0,0,0,-2.46,2.79,-5.47,0.70,0.14,0.34,0.00,0.00,0.01,122.0896464,37.5442215,-0.232,-0.243,-0.244,0.000,122.0895840,37.5442066,0.095,0.00,1.50,-151.61,-159090150328642789887836252274688.000,620.36,25,7,4,1,34,34.0
1754057277.736396,4,4.12,21.50,1.61,0,1100000,11100,000100000,-32765,0,0,0,0,0,0,-2.51,2.86,-5.59,0.18,-0.35,0.65,0.00,0.00,0.02,122.0896464,37.5442215,-0.219,-0.238,-0.239,0.000,122.0895840,37.5442066,0.095,0.00,1.50,-151.61,-1.961,620.36,25,7,4,1,34,34.0
1754057277.856293,4,4.12,21.50,1.61,0,1100000,11100,000100000,-32765,0,0,0,0,0,0,-2.53,2.87,-5.65,0.21,-0.17,0.62,0.00,0.00,0.02,122.0896464,37.5442215,-0.211,-0.233,-0.233,0.000,122.0895840,37.5442066,0.095,0.00,1.50,-151.61,-0.000,620.36,25,7,4,1,34,34.0
1754057277.976137,4,4.12,21.50,1.61,0,1100000,11100,000100000,-32765,0,0,0,0,0,0,-2.52,2.90,-5.70,0.38,0.37,0.40,0.00,0.00,0.02,122.0896464,37.5442215,-0.212,-0.229,-0.224,0.000,122.0895840,37.5442066,0.095,0.00,1.50,-151.61,-0.000,620.36,25,7,4,1,34,34.0
1754057278.096265,4,4.12,21.50,1.61,0,1100000,11100,000100000,-32765,0,0,0,0,0,0,-2.41,2.94,-5.72,0.41,1.31,0.10,0.00,0.00,0.02,122.0896464,37.5442215,-0.212,-0.225,-0.217,0.000,122.0895840,37.5442066,0.095,0.00,1.50,-151.61,41704528367751735512356946516295811072.000,620.36,25,7,4,1,34,34.0
1754057278.220604,4,4.12,21.50,1.61,0,1100000,11100,000100000,-32765,0,0,0,0,0,0,-2.22,2.95,-5.72,-0.01,2.07,-0.07,0.00,0.00,0.02,122.0896464,37.5442215,-0.206,-0.221,-0.212,0.000,122.0895840,37.5442066,0.095,0.00,1.50,-151.61,159090150328642789887836252274688.000,620.36,25,7,4,1,34,35.0
1754057278.336392,4,4.12,21.50,1.60,0,1100000,11100,000100000,-32765,0,0,0,0,0,0,-1.84,2.70,-5.72,-2.02,1.49,0.08,-0.01,0.00,0.00,122.0896464,37.5442215,-0.223,-0.222,-0.213,0.000,122.0895840,37.5442066,0.095,0.00,1.50,-151.61,0.002,620.36,25,7,4,1,34,35.0
1754057278.456240,4,4.12,21.50,1.62,0,1100000,11100,000100000,-32765,0,0,0,0,0,0,-1.78,2.42,-5.74,-3.13,0.28,0.23,-0.01,0.00,0.00,122.0896464,37.5442214,-0.227,-0.223,-0.216,0.000,122.0895840,37.5442066,0.095,0.00,1.50,-151.61,0.000,620.36,25,7,4,1,34,35.0
1754057278.576488,4,4.12,21.50,1.62,0,1100000,11100,000100000,-32765,0,0,0,0,0,0,-1.85,2.03,-5.75,-4.09,-0.92,0.31,-0.02,0.00,0.00,122.0896464,37.5442214,-0.230,-0.224,-0.220,0.000,122.0895840,37.5442066,0.095,0.00,1.50,-151.61,558551906910208.000,620.36,25,7,4,1,34,35.0
1754057278.696385,4,4.12,21.50,1.62,0,1100000,11100,000100000,-32765,0,0,0,0,0,0,-2.01,1.57,-5.76,-4.71,-1.69,0.30,-0.03,0.00,0.00,122.0896464,37.5442214,-0.220,-0.223,-0.221,0.000,122.0895840,37.5442066,0.095,0.00,1.50,-151.61,-522240.000,620.36,25,7,4,1,34,35.0
1754057278.823066,4,4.12,21.50,1.62,0,1100000,11100,000100000,-32765,0,0,0,0,0,0,-2.18,1.07,-5.76,-4.96,-1.73,0.23,-0.04,0.00,-0.01,122.0896464,37.5442212,-0.218,-0.222,-0.224,0.000,122.0895840,37.5442066,0.095,0.00,1.50,-151.61,138512695296.000,620.36,25,7,4,1,34,35.0
1754057278.936325,4,4.12,21.50,1.62,0,1100000,11100,000100000,-32765,0,0,0,0,0,0,-2.40,0.08,-5.74,-4.95,-0.63,0.08,-0.04,0.00,-0.01,122.0896464,37.5442212,-0.202,-0.218,-0.219,0.000,122.0895840,37.5442066,0.095,0.00,1.50,-151.61,10213005324104387267917774848.000,620.36,25,7,4,1,34,35.0
1754057279.056927,4,4.12,21.50,1.62,0,1100000,11100,000100000,-32765,0,0,0,0,0,0,-2.43,-0.40,-5.72,-4.97,-0.25,0.05,-0.04,0.00,-0.02,122.0896464,37.5442212,-0.198,-0.214,-0.214,0.000,122.0895840,37.5442066,0.095,0.00,1.50,-151.61,-168597529830354510399061526315008.000,620.36,25,7,4,1,34,35.0
1754057279.176220,4,4.02,21.50,1.62,0,1100000,11100,000100000,-32765,0,0,0,0,0,0,-2.46,-0.90,-5.70,-4.95,-0.20,0.00,-0.05,0.00,-0.02,122.0896464,37.5442211,-0.182,-0.208,-0.204,0.000,122.0895840,37.5442066,0.095,0.00,1.50,-151.61,-0.000,620.36,25,7,4,1,34,36.0
1754057279.296489,4,4.02,21.50,1.62,0,1100000,11100,000100000,-32765,0,0,0,0,0,0,-2.48,-1.38,-5.67,-4.78,-0.25,-0.08,-0.05,0.00,-0.03,122.0896464,37.5442211,-0.171,-0.200,-0.194,0.000,122.0895840,37.5442066,0.095,0.00,1.50,-151.61,0.000,620.36,25,7,4,1,34,36.0
1754057279.420830,4,4.02,21.50,1.62,0,1100000,11100,000100000,-32765,0,0,0,0,0,0,-2.49,-1.84,-5.64,-4.43,-0.07,-0.19,-0.04,0.00,-0.03,122.0896464,37.5442211,-0.181,-0.196,-0.187,0.000,122.0895840,37.5442066,0.095,0.00,1.50,-151.61,170835725421382477936079142912.000,620.36,25,7,4,1,34,36.0
1754057279.536450,4,4.02,21.50,1.61,0,1100000,11100,000100000,-32765,0,0,0,0,0,0,-2.39,-2.60,-5.56,-3.53,0.96,-0.26,-0.05,0.00,-0.03,122.0896464,37.5442210,-0.193,-0.196,-0.185,0.000,122.0895840,37.5442066,0.095,0.00,1.50,-151.61,-0.000,620.36,25,7,4,1,34,36.0
1754057279.655940,4,4.02,21.50,1.61,0,1100000,11100,000100000,-32765,0,0,0,0,0,0,-2.25,-2.92,-5.53,-3.02,1.50,-0.22,-0.04,0.00,-0.03,122.0896464,37.5442210,-0.198,-0.196,-0.185,0.000,122.0895840,37.5442066,0.095,0.00,1.50,-151.61,-0.000,620.36,25,7,4,1,34,36.0
1754057279.774640,4,4.02,21.50,1.61,0,1100000,11100,000100000,-32765,0,0,0,0,0,0,-2.09,-3.18,-5.51,-2.47,1.70,-0.15,-0.03,0.00,-0.03,122.0896464,37.5442209,-0.220,-0.201,-0.192,0.000,122.0895840,37.5442066,0.095,0.00,1.50,-151.61,-0.000,620.36,25,7,4,1,34,36.0
1754057279.896320,4,4.02,21.50,1.65,0,1100000,11100,000100000,-32765,0,0,0,0,0,0,-1.92,-3.39,-5.49,-1.91,1.66,-0.15,-0.05,0.00,-0.02,122.0896464,37.5442209,-0.219,-0.205,-0.202,0.000,122.0895840,37.5442066,0.095,0.00,1.50,-151.61,-0.000,620.36,25,7,4,1,34,36.0
1754057280.024355,4,4.02,21.50,1.65,0,1100000,11100,000100000,-32765,0,0,0,0,0,0,-1.76,-3.54,-5.47,-1.37,1.58,-0.17,-0.04,0.00,-0.02,122.0896464,37.5442208,-0.243,-0.212,-0.214,0.000,122.0895840,37.5442066,0.095,0.00,1.50,-151.61,-0.000,620.36,25,7,4,1,34,36.0
1754057280.136489,4,4.02,21.50,1.62,0,1100000,11100,000100000,-32765,0,0,0,0,0,0,-1.39,-3.68,-5.43,-0.29,2.10,-0.27,-0.04,0.00,-0.01,122.0896464,37.5442206,-0.245,-0.219,-0.225,0.000,122.0895840,37.5442066,0.095,0.00,1.50,-151.61,-0.000,620.36,25,7,4,1,34,37.0
1754057280.256309,4,4.02,21.50,1.63,0,1100000,11100,000100000,-32765,0,0,0,0,0,0,-1.16,-3.66,-5.41,0.24,2.34,-0.26,-0.04,0.00,-0.01,122.0896464,37.5442206,-0.256,-0.226,-0.237,0.000,122.0895840,37.5442066,0.095,0.00,1.50,-151.61,-0.000,620.36,25,7,4,1,34,37.0
1754057280.376289,4,4.02,21.50,1.63,0,1100000,11100,000100000,-32765,0,0,0,0,0,0,-0.95,-3.60,-5.39,0.80,2.03,-0.25,-0.04,-0.01,-0.01,122.0896464,37.5442206,-0.227,-0.226,-0.238,0.000,122.0895840,37.5442066,0.095,0.00,1.50,-151.61,-0.000,620.36,25,7,4,1,34,37.0
1754057280.496388,4,4.12,21.50,1.62,0,1100000,11100,000100000,-32765,0,0,0,0,0,0,-0.82,-3.47,-5.37,1.37,1.05,-0.25,-0.04,-0.01,0.00,122.0896464,37.5442206,-0.230,-0.227,-0.240,0.000,122.0895840,37.5442066,0.095,0.00,1.50,-151.61,-0.000,620.36,25,7,4,1,34,37.0
1754057280.625123,4,4.12,21.50,1.62,0,1100000,11100,000100000,-32765,0,0,0,0,0,0,-0.81,-3.30,-5.34,1.94,-0.27,-0.24,-0.03,-0.01,0.00,122.0896464,37.5442206,-0.226,-0.227,-0.237,0.000,122.0895840,37.5442066,0.095,0.00,1.50,-151.61,-0.000,620.36,25,7,4,1,34,37.0
1754057280.736489,4,4.12,21.50,1.62,0,1100000,11100,000100000,-32765,0,0,0,0,0,0,-1.10,-2.77,-5.31,2.93,-1.76,-0.16,-0.03,0.00,0.01,122.0896464,37.5442206,-0.222,-0.226,-0.232,0.000,122.0895840,37.5442066,0.095,0.00,1.50,-151.61,-0.000,620.36,25,7,4,1,34,37.0
1754057280.856359,4,4.12,21.50,1.61,0,1100000,11100,000100000,-32765,0,0,0,0,0,0,-1.26,-2.45,-5.30,3.34,-1.49,-0.11,-0.02,0.00,0.01,122.0896464,37.5442205,-0.213,-0.223,-0.224,0.000,122.0895840,37.5442066,0.095,0.00,1.50,-151.61,-0.000,620.36,25,7,4,1,34,37.0
1754057280.976345,4,4.12,21.50,1.61,0,1100000,11100,000100000,-32765,0,0,0,0,0,0,-1.37,-2.10,-5.30,3.51,-1.03,-0.08,-0.02,0.00,0.01,122.0896464,37.5442205,-0.232,-0.225,-0.225,0.000,122.0895840,37.5442066,0.095,0.00,1.50,-151.61,35584.000,620.36,25,7,4,1,34,37.0
1754057281.096554,4,4.12,21.50,1.62,0,1100000,11100,000100000,-32765,0,0,0,0,0,0,-1.47,-1.76,-5.30,3.35,-1.05,-0.02,-0.01,0.00,0.01,122.0896464,37.5442205,-0.228,-0.226,-0.224,0.000,122.0895840,37.5442066,0.095,0.00,1.50,-151.61,0.000,620.36,25,7,4,1,34,37.0
1754057281.223308,4,4.12,21.50,1.62,0,1100000,11100,000100000,-32765,0,0,0,0,0,0,-1.62,-1.44,-5.30,3.17,-1.54,0.04,-0.01,0.00,0.01,122.0896464,37.5442204,-0.256,-0.232,-0.230,0.000,122.0895840,37.5442066,0.095,0.00,1.50,-151.61,0.000,620.36,25,7,4,1,34,38.0
1754057281.336526,4,4.12,21.50,1.62,0,1100000,11100,000100000,-32765,0,0,0,0,0,0,-2.09,-0.81,-5.33,3.17,-2.81,0.13,-0.02,0.00,0.00,122.0896464,37.5442204,-0.233,-0.232,-0.233,0.000,122.0895840,37.5442066,0.095,0.00,1.50,-151.61,0.001,620.36,25,7,4,1,34,38.0
1754057281.456016,4,4.12,21.50,1.61,0,1100000,11100,000100000,-32765,0,0,0,0,0,0,-2.38,-0.49,-5.34,3.10,-2.96,0.05,-0.02,0.00,0.00,122.0896464,37.5442204,-0.247,-0.235,-0.239,0.000,122.0895840,37.5442066,0.095,0.00,1.50,-151.61,0.002,620.36,25,7,4,1,34,38.0
1754057281.576377,4,4.12,21.50,1.61,0,1100000,11100,000100000,-32765,0,0,0,0,0,0,-2.65,-0.20,-5.33,2.83,-2.54,-0.13,-0.02,0.00,0.00,122.0896464,37.5442204,-0.246,-0.237,-0.242,0.000,122.0895840,37.5442066,0.095,0.00,1.50,-151.61,142807662592.000,620.36,25,7,4,1,34,38.0
1754057281.696477,4,4.12,21.50,1.65,0,1100000,11100,000100000,-32765,0,0,0,0,0,0,-2.85,0.03,-5.31,2.29,-1.74,-0.25,-0.02,0.00,0.01,122.0896464,37.5442203,-0.238,-0.237,-0.244,0.000,122.0895840,37.5442066,0.095,0.00,1.50,-151.61,-0.000,620.36,25,7,4,1,34,38.0
1754057281.820765,4,4.12,21.50,1.65,0,1100000,11100,000100000,-32765,0,0,0,0,0,0,-2.94,0.21,-5.28,1.61,-0.77,-0.25,-0.02,0.00,0.01,122.0896464,37.5442203,-0.232,-0.236,-0.239,0.000,122.0895840,37.5442066,0.095,0.00,1.50,-151.61,0.000,620.36,25,7,4,1,34,38.0
1754057281.936464,4,4.12,21.50,1.61,0,1100000,11100,000100000,-32765,0,0,0,0,0,0,-2.86,0.35,-5.30,0.22,1.18,0.17,-0.03,0.00,0.00,122.0896464,37.5442202,-0.219,-0.233,-0.236,0.000,122.0895840,37.5442066,0.095,0.00,1.50,-151.61,-0.000,620.36,25,7,4,1,34,38.0
1754057282.057270,4,4.12,21.50,1.61,0,1100000,11100,000100000,-32765,0,0,0,0,0,0,-2.68,0.33,-5.33,-0.28,2.02,0.30,-0.04,0.00,0.00,122.0896464,37.5442202,-0.218,-0.230,-0.230,0.000,122.0895840,37.5442066,0.095,0.00,1.50,-151.61,-0.000,620.36,25,7,4,1,34,38.0
1754057282.176346,4,4.12,21.50,1.61,0,1100000,11100,000100000,-32765,0,0,0,0,0,0,-2.43,0.28,-5.37,-0.64,2.56,0.24,-0.04,0.00,0.00,122.0896464,37.5442200,-0.210,-0.226,-0.223,0.000,122.0895840,37.5442066,0.095,0.00,1.50,-151.61,-2197815296.000,620.36,25,7,4,1,34,39.0
1754057282.296504,4,4.12,21.50,1.61,0,1100000,11100,000100000,-32765,0,0,0,0,0,0,-2.16,0.20,-5.38,-0.77,2.59,0.01,-0.05,0.00,0.00,122.0896464,37.5442200,-0.211,-0.223,-0.218,0.000,122.0895840,37.5442066,0.095,0.00,1.50,-151.61,0.000,620.36,25,7,4,1,34,39.0
1754057282.424311,4,4.12,21.50,1.61,0,1100000,11100,000100000,-32765,0,0,0,0,0,0,-1.94,0.13,-5.37,-0.66,2.12,-0.26,-0.04,0.00,0.00,122.0896464,37.5442200,-0.218,-0.222,-0.215,0.000,122.0895840,37.5442066,0.095,0.00,1.50,-151.61,8448.000,620.36,25,7,4,1,34,39.0
1754057282.536467,4,4.12,21.50,1.61,0,1100000,11100,000100000,-32765,0,0,0,0,0,0,-1.68,0.06,-5.28,-0.20,0.92,-0.51,-0.04,-0.01,0.00,122.0896464,37.5442200,-0.230,-0.224,-0.217,0.000,122.0895840,37.5442066,0.095,0.00,1.50,-151.61,685383185326597246966025515457052672.000,620.36,25,7,4,1,34,39.0
1754057282.656405,4,4.12,21.50,1.61,0,1100000,11100,000100000,-32765,0,0,0,0,0,0,-1.58,0.04,-5.24,-0.26,0.98,-0.46,-0.04,-0.01,0.00,122.0896464,37.5442200,-0.220,-0.223,-0.218,0.000,122.0895840,37.5442066,0.095,0.00,1.50,-151.61,-0.000,620.36,25,7,4,1,34,39.0
1754057282.776283,4,4.12,21.50,1.61,0,1100000,11100,000100000,-32765,0,0,0,0,0,0,-1.45,0.00,-5.20,-0.60,1.52,-0.35,-0.04,0.00,0.00,122.0896464,37.5442199,-0.244,-0.227,-0.224,0.000,122.0895840,37.5442066,0.095,0.00,1.50,-151.61,-0.000,620.36,25,7,4,1,34,39.0
1754057282.896611,4,4.12,21.50,1.62,0,1100000,11100,000100000,-32765,0,0,0,0,0,0,-1.24,-0.09,-5.18,-1.15,2.18,-0.20,-0.03,0.00,0.00,122.0896464,37.5442199,-0.230,-0.228,-0.228,0.000,122.0895840,37.5442066,0.095,0.00,1.50,-151.61,-175458095443608895223302531957005484032.000,620.36,25,7,4,1,34,39.0
1754057283.020769,4,4.12,21.50,1.62,0,1100000,11100,000100000,-32765,0,0,0,0,0,0,-1.00,-0.25,-5.17,-1.68,2.40,-0.05,-0.04,0.00,0.00,122.0896464,37.5442198,-0.226,-0.227,-0.230,0.000,122.0895840,37.5442066,0.095,0.00,1.50,-151.61,44196830859848452774051584754321457152.000,620.36,25,7,4,1,34,39.0
1754057283.136510,4,4.12,21.50,1.64,0,1100000,11100,000100000,-32765,0,0,0,0,0,0,-0.73,-0.64,-5.18,-1.94,0.38,0.13,-0.04,0.00,0.00,122.0896464,37.5442197,-0.222,-0.226,-0.228,0.000,122.0895840,37.5442066,0.095,0.00,1.50,-151.61,-0.000,620.36,25,7,4,1,34,40.0
1754057283.256084,4,4.12,21.50,1.63,0,1100000,11100,000100000,-32765,0,0,0,0,0,0,-0.81,-0.82,-5.19,-1.63,-1.12,0.15,-0.05,0.00,0.00,122.0896464,37.5442197,-0.226,-0.226,-0.230,0.000,122.0895840,37.5442066,0.095,0.00,1.50,-151.61,135.000,620.36,25,7,4,1,34,40.0
1754057283.376404,4,4.12,21.50,1.63,0,1100000,11100,000100000,-32765,0,0,0,0,0,0,-0.99,-0.94,-5.20,-1.09,-2.06,0.07,-0.04,0.00,0.00,122.0896464,37.5442196,-0.230,-0.227,-0.227,0.000,122.0895840,37.5442066,0.095,0.00,1.50,-151.61,-0.000,620.36,25,7,4,1,34,40.0
1754057283.496573,4,4.12,21.50,1.64,0,1100000,11100,000100000,-32765,0,0,0,0,0,0,-1.21,-1.00,-5.19,-0.41,-2.15,-0.08,-0.04,0.00,0.00,122.0896464,37.5442196,-0.232,-0.228,-0.227,0.000,122.0895840,37.5442066,0.095,0.00,1.50,-151.61,-2319282339840.000,620.36,25,7,4,1,34,40.0
1754057283.623353,4,4.12,21.50,1.64,0,1100000,11100,000100000,-32765,0,0,0,0,0,0,-1.37,-0.99,-5.17,0.19,-1.28,-0.19,-0.03,0.00,0.00,122.0896464,37.5442194,-0.247,-0.232,-0.231,0.000,122.0895840,37.5442066,0.095,0.00,1.50,-151.61,-8847360.000,620.36,25,7,4,1,34,40.0
1754057283.736561,4,4.12,21.50,1.64,0,1100000,11100,000100000,-32765,0,0,0,0,0,0,-1.36,-0.99,-5.02,-0.52,0.68,-1.21,-0.03,0.00,0.00,122.0896464,37.5442194,-0.232,-0.232,-0.233,0.000,122.0895840,37.5442066,0.095,0.00,1.50,-151.61,-8847360.000,620.36,25,7,4,1,34,40.0
1754057283.856074,4,4.12,21.50,1.61,0,1100000,11100,000100000,-32765,0,0,0,0,0,0,-1.27,-1.10,-4.85,-1.26,0.83,-1.79,-0.02,0.00,0.00,122.0896464,37.5442194,-0.247,-0.235,-0.238,0.000,122.0895840,37.5442066,0.095,0.00,1.50,-151.61,0.000,620.36,25,7,4,1,34,40.0
1754057283.976370,4,4.12,21.50,1.61,0,1100000,11100,000100000,-32765,0,0,0,0,0,0,-1.23,-1.23,-4.66,-1.36,0.29,-1.85,-0.02,0.00,0.00,122.0896464,37.5442194,-0.232,-0.234,-0.238,0.000,122.0895840,37.5442066,0.095,0.00,1.50,-151.61,-0.000,620.36,25,7,4,1,34,40.0
1754057284.096550,4,4.12,21.50,1.61,0,1100000,11100,000100000,-32765,0,0,0,0,0,0,-1.26,-1.36,-4.48,-1.21,-0.59,-1.80,-0.02,0.00,0.00,122.0896464,37.5442194,-0.247,-0.237,-0.241,0.000,122.0895840,37.5442066,0.095,0.00,1.50,-151.61,-673439381371246869545123577856.000,620.36,25,7,4,1,34,40.0
1754057284.224374,4,4.12,21.50,1.61,0,1100000,11100,000100000,-32765,0,0,0,0,0,0,-1.39,-1.46,-4.29,-0.96,-1.44,-1.80,-0.02,0.00,0.00,122.0896464,37.5442194,-0.232,-0.236,-0.238,0.000,122.0895840,37.5442066,0.095,0.00,1.50,-151.61,2192.000,620.36,25,7,4,1,34,41.0
1754057284.336626,4,4.12,21.50,1.60,0,1100000,11100,000100000,-32765,0,0,0,0,0,0,-1.77,-1.56,-3.90,-0.16,-2.04,-1.87,-0.02,0.00,0.02,122.0896464,37.5442194,-0.239,-0.237,-0.239,0.000,122.0895840,37.5442066,0.095,0.00,1.50,-151.61,-0.000,620.36,25,7,4,1,34,41.0
1754057284.456520,4,4.12,21.50,1.60,0,1100000,11100,000100000,-32765,0,0,0,0,0,0,-1.96,-1.54,-3.71,0.37,-1.68,-1.70,-0.02,0.00,0.03,122.0896464,37.5442194,-0.233,-0.236,-0.237,0.000,122.0895840,37.5442066,0.095,0.00,1.50,-151.61,-0.000,620.36,25,7,4,1,34,41.0
1754057284.576323,4,4.12,21.50,1.63,0,1100000,11100,000100000,-32765,0,0,0,0,0,0,-2.06,-1.46,-3.55,0.87,-0.84,-1.54,-0.02,0.00,0.03,122.0896464,37.5442193,-0.228,-0.234,-0.236,0.000,122.0895840,37.5442066,0.095,0.00,1.50,-151.61,2192.000,620.36,25,7,4,1,34,41.0
1754057284.770318,4,4.12,21.50,1.61,0,1100000,11100,000100000,-32765,0,0,0,0,0,0,-2.05,-1.35,-3.42,1.12,0.47,-1.43,-0.01,-0.01,0.03,122.0896464,37.5442193,-0.224,-0.232,-0.231,0.000,122.0895840,37.5442066,0.095,0.00,1.50,-151.61,-2630622583481433084160638976.000,620.36,25,7,4,1,34,41.0
1754057284.814848,4,4.12,21.50,1.61,0,1100000,11100,000100000,-32765,0,0,0,0,0,0,-1.85,-1.26,-3.27,0.64,2.47,-1.62,-0.01,-0.01,0.03,122.0896464,37.5442193,-0.215,-0.229,-0.228,0.000,122.0895840,37.5442066,0.095,0.00,1.50,-151.61,-0.000,620.36,25,7,4,1,34,41.0
1754057284.936621,4,4.12,21.50,1.60,0,1100000,11100,000100000,-32765,0,0,0,0,0,0,-0.94,-1.42,-2.92,-1.34,5.35,-1.82,-0.01,-0.01,0.01,122.0896463,37.5442193,-0.222,-0.228,-0.224,0.000,122.0895840,37.5442066,0.095,0.00,1.50,-151.61,0.000,620.36,25,7,4,1,34,41.0
1754057285.056957,4,4.12,21.50,1.60,0,1100000,11100,000100000,-32765,0,0,0,0,0,0,-0.42,-1.57,-2.75,-1.38,5.15,-1.67,-0.01,-0.01,0.00,122.0896463,37.5442192,-0.214,-0.225,-0.221,0.000,122.0895840,37.5442066,0.095,0.00,1.50,-151.61,-0.000,620.36,25,7,4,1,34,41.0
1754057285.176464,4,4.12,21.50,1.60,0,1100000,11100,000100000,-32765,0,0,0,0,0,0,0.00,-1.70,-2.61,-1.28,4.12,-1.32,-0.01,-0.01,0.00,122.0896463,37.5442192,-0.207,-0.221,-0.217,0.000,122.0895840,37.5442066,0.095,0.00,1.50,-151.61,0.000,620.36,25,7,4,1,34,42.0
1754057285.296636,4,4.12,21.50,1.60,0,1100000,11100,000100000,-32765,0,0,0,0,0,0,0.36,-1.82,-2.49,-1.16,3.53,-1.18,-0.01,-0.01,0.00,122.0896463,37.5442192,-0.189,-0.215,-0.210,0.000,122.0895840,37.5442066,0.095,0.00,1.50,-151.61,651686574636011039490048.000,620.36,25,7,4,1,34,42.0
1754057285.420874,4,4.12,21.50,1.60,0,1100000,11100,000100000,-32765,0,0,0,0,0,0,0.69,-1.95,-2.37,-1.17,3.27,-1.08,-0.01,-0.01,0.00,122.0896463,37.5442192,-0.189,-0.210,-0.204,0.000,122.0895840,37.5442066,0.095,0.00,1.50,-151.61,-141312.000,620.36,25,7,4,1,34,42.0
1754057285.536644,4,4.12,21.50,1.59,0,1100000,11100,000100000,-32765,0,0,0,0,0,0,1.35,-2.22,-2.13,-1.39,3.34,-1.22,-0.01,-0.01,0.00,122.0896462,37.5442192,-0.213,-0.210,-0.202,0.000,122.0895840,37.5442066,0.095,0.00,1.50,-151.61,-0.000,620.36,25,7,4,1,34,42.0
1754057285.656535,4,4.12,21.50,1.60,0,1100000,11100,000100000,-32765,0,0,0,0,0,0,1.62,-2.38,-2.01,-1.58,2.52,-1.24,-0.01,-0.01,0.00,122.0896462,37.5442192,-0.213,-0.211,-0.202,0.000,122.0895840,37.5442066,0.095,0.00,1.50,-151.61,-0.000,620.36,25,7,4,1,34,42.0
1754057285.776513,4,4.12,21.50,1.60,0,1100000,11100,000100000,-32765,0,0,0,0,0,0,1.75,-2.57,-1.88,-1.80,1.02,-1.14,-0.01,0.00,0.00,122.0896462,37.5442191,-0.207,-0.210,-0.202,0.000,122.0895840,37.5442066,0.095,0.00,1.50,-151.61,-0.000,620.36,25,7,4,1,34,42.0
1754057285.896623,4,4.12,21.50,1.60,0,1100000,11100,000100000,-32765,0,0,0,0,0,0,1.72,-2.77,-1.80,-2.06,-0.68,-0.89,-0.01,0.00,0.00,122.0896462,37.5442191,-0.208,-0.210,-0.206,0.000,122.0895840,37.5442066,0.095,0.00,1.50,-151.61,-0.000,620.36,25,7,4,1,34,42.0
1754057286.024660,4,4.12,21.50,1.60,0,1100000,11100,000100000,-32765,0,0,0,0,0,0,1.52,-3.00,-1.74,-2.22,-2.30,-0.66,-0.01,0.00,0.00,122.0896462,37.5442191,-0.216,-0.211,-0.212,0.000,122.0895840,37.5442066,0.095,0.00,1.50,-151.61,-0.000,620.36,25,7,4,1,34,42.0
1754057286.136687,4,4.12,21.50,1.59,0,1100000,11100,000100000,-32765,0,0,0,0,0,0,0.78,-3.41,-1.67,-1.73,-4.24,-0.34,-0.02,0.00,0.00,122.0896462,37.5442191,-0.234,-0.216,-0.216,0.000,122.0895840,37.5442066,0.095,0.00,1.50,-151.61,-0.000,620.36,25,7,4,1,34,43.0
1754057286.256588,4,4.12,21.50,1.59,0,1100000,11100,000100000,-32765,0,0,0,0,0,0,0.32,-3.54,-1.64,-1.11,-4.64,-0.31,-0.01,0.01,0.00,122.0896462,37.5442190,-0.229,-0.218,-0.219,0.000,122.0895840,37.5442066,0.095,0.00,1.50,-151.61,-0.000,620.36,25,7,4,1,34,43.0
1754057286.376524,4,4.12,21.50,1.59,0,1100000,11100,000100000,-32765,0,0,0,0,0,0,-0.13,-3.60,-1.61,-0.41,-4.58,-0.36,0.00,0.01,0.00,122.0896462,37.5442190,-0.219,-0.218,-0.221,0.000,122.0895840,37.5442066,0.095,0.00,1.50,-151.61,-0.000,620.36,25,7,4,1,34,43.0
1754057286.496710,4,4.12,21.50,1.59,0,1100000,11100,000100000,-32765,0,0,0,0,0,0,-0.57,-3.60,-1.57,0.08,-4.27,-0.38,-0.01,0.01,0.00,122.0896462,37.5442190,-0.236,-0.222,-0.227,0.000,122.0895840,37.5442066,0.095,0.00,1.50,-151.61,-0.000,620.36,25,7,4,1,34,43.0
1754057286.621202,4,4.12,21.50,1.59,0,1100000,11100,000100000,-32765,0,0,0,0,0,0,-0.97,-3.58,-1.53,0.29,-3.82,-0.29,0.00,0.01,0.00,122.0896463,37.5442190,-0.231,-0.224,-0.230,0.000,122.0895840,37.5442066,0.095,0.00,1.50,-151.61,-0.000,620.36,25,7,4,1,34,43.0
1754057286.736712,4,4.12,21.50,1.61,0,1100000,11100,000100000,-32765,0,0,0,0,0,0,-1.54,-3.55,-1.48,-0.05,-2.30,-0.08,0.00,0.01,0.00,122.0896463,37.5442190,-0.212,-0.221,-0.225,0.000,122.0895840,37.5442066,0.095,0.00,1.50,-151.61,-0.000,620.36,25,7,4,1,34,43.0
1754057286.856882,4,4.12,21.50,1.59,0,1100000,11100,000100000,-32765,0,0,0,0,0,0,-1.71,-3.58,-1.47,-0.27,-1.43,-0.01,0.00,0.00,0.00,122.0896463,37.5442190,-0.206,-0.218,-0.221,0.000,122.0895840,37.5442066,0.095,0.00,1.50,-151.61,-0.000,620.36,25,7,4,1,34,43.0
1754057286.976548,4,4.12,21.50,1.59,0,1100000,11100,000100000,-32765,0,0,0,0,0,0,-1.78,-3.61,-1.47,-0.33,-0.46,0.05,0.00,0.00,0.00,122.0896463,37.5442190,-0.207,-0.216,-0.218,0.000,122.0895840,37.5442066,0.095,0.00,1.50,-151.61,-0.000,620.36,25,7,4,1,34,43.0
1754057287.096749,4,4.12,21.50,1.60,0,1100000,11100,000100000,-32765,0,0,0,0,0,0,-1.75,-3.63,-1.48,-0.17,0.53,0.07,0.00,0.00,0.00,122.0896463,37.5442190,-0.209,-0.215,-0.213,0.000,122.0895840,37.5442066,0.095,0.00,1.50,-151.61,-0.000,620.36,25,7,4,1,34,43.0
1754057287.223811,4,4.12,21.50,1.60,0,1100000,11100,000100000,-32765,0,0,0,0,0,0,-1.62,-3.62,-1.49,0.20,1.56,0.03,-0.01,0.00,0.00,122.0896463,37.5442190,-0.203,-0.212,-0.207,0.000,122.0895840,37.5442066,0.095,0.00,1.50,-151.61,-0.000,620.36,25,7,4,1,34,44.0
1754057287.336614,4,4.12,21.50,1.60,0,1100000,11100,000100000,-32765,0,0,0,0,0,0,-1.15,-3.46,-1.51,1.14,2.69,0.06,0.00,0.00,0.00,122.0896463,37.5442190,-0.196,-0.209,-0.204,0.000,122.0895840,37.5442066,0.095,0.00,1.50,-151.61,-0.000,620.36,25,7,4,1,34,44.0
1754057287.456196,4,4.12,21.50,1.60,0,1100000,11100,000100000,-32765,0,0,0,0,0,0,-0.86,-3.32,-1.52,1.41,2.94,0.02,0.00,0.00,0.00,122.0896463,37.5442190,-0.194,-0.206,-0.202,0.000,122.0895840,37.5442066,0.095,0.00,1.50,-151.61,-0.000,620.36,25,7,4,1,34,44.0
1754057287.576570,4,4.12,21.50,1.60,0,1100000,11100,000100000,-32765,0,0,0,0,0,0,-0.57,-3.18,-1.53,1.51,2.90,0.01,0.00,0.00,0.00,122.0896463,37.5442190,-0.192,-0.203,-0.199,0.000,122.0895840,37.5442066,0.095,0.00,1.50,-151.61,-0.000,620.36,25,7,4,1,34,44.0
1754057287.696759,4,4.12,21.50,1.60,0,1100000,11100,000100000,-32765,0,0,0,0,0,0,-0.31,-3.09,-1.51,0.60,2.41,-0.28,0.00,0.00,0.00,122.0896463,37.5442190,-0.197,-0.202,-0.196,0.000,122.0895840,37.5442066,0.095,0.00,1.50,-151.61,-0.000,620.36,25,7,4,1,34,44.0
1754057287.821235,4,4.12,21.50,1.60,0,1100000,11100,000100000,-32765,0,0,0,0,0,0,-0.15,-3.09,-1.47,-0.13,1.37,-0.46,0.00,0.00,0.00,122.0896463,37.5442190,-0.201,-0.202,-0.196,0.000,122.0895840,37.5442066,0.095,0.00,1.50,-151.61,-0.000,620.36,25,7,4,1,34,44.0
1754057287.936733,4,4.12,21.50,1.60,0,1100000,11100,000100000,-32765,0,0,0,0,0,0,-0.05,-3.11,-1.34,-0.04,-0.05,-0.65,0.00,0.00,0.00,122.0896463,37.5442190,-0.220,-0.205,-0.201,0.000,122.0895840,37.5442066,0.095,0.00,1.50,-151.61,-0.000,620.36,25,7,4,1,34,44.0
1754057288.057284,4,4.12,21.50,1.60,0,1100000,11100,000100000,-32765,0,0,0,0,0,0,-0.10,-3.10,-1.28,0.12,-0.62,-0.54,0.00,0.00,0.00,122.0896463,37.5442190,-0.218,-0.208,-0.206,0.000,122.0895840,37.5442066,0.095,0.00,1.50,-151.61,-0.000,620.36,25,7,4,1,34,44.0
1754057288.176608,4,4.12,21.50,1.60,0,1100000,11100,000100000,-32765,0,0,0,0,0,0,-0.19,-3.09,-1.24,0.14,-0.94,-0.36,0.00,0.00,0.00,122.0896463,37.5442190,-0.217,-0.210,-0.211,0.000,122.0895840,37.5442066,0.095,0.00,1.50,-151.61,-0.000,620.36,25,7,4,1,34,45.0
1754057288.296734,4,4.12,21.50,1.60,0,1100000,11100,000100000,-32765,0,0,0,0,0,0,-0.30,-3.09,-1.21,0.05,-1.05,-0.19,0.00,0.00,0.00,122.0896463,37.5442190,-0.235,-0.215,-0.218,0.000,122.0895840,37.5442066,0.095,0.00,1.50,-151.61,-0.000,620.36,25,7,4,1,34,45.0
1754057288.424729,4,4.12,21.50,1.60,0,1100000,11100,000100000,-32765,0,0,0,0,0,0,-0.40,-3.09,-1.20,-0.08,-0.85,-0.13,0.00,0.00,0.00,122.0896463,37.5442190,-0.223,-0.217,-0.223,0.000,122.0895840,37.5442066,0.095,0.00,1.50,-151.61,-0.000,620.36,25,7,4,1,34,45.0
1754057288.536815,4,4.12,21.50,1.61,0,1100000,11100,000100000,-32765,0,0,0,0,0,0,-0.49,-3.11,-1.14,-0.03,-0.29,-0.44,0.00,0.00,0.00,122.0896464,37.5442190,-0.219,-0.217,-0.223,0.000,122.0895840,37.5442066,0.095,0.00,1.50,-151.61,-0.000,620.36,25,7,4,1,34,45.0
1754057288.656682,4,4.12,21.50,1.60,0,1100000,11100,000100000,-32765,0,0,0,0,0,0,-0.52,-3.11,-1.09,0.10,-0.13,-0.53,0.00,0.00,0.00,122.0896464,37.5442190,-0.224,-0.218,-0.224,0.000,122.0895840,37.5442066,0.095,0.00,1.50,-151.61,-0.000,620.36,25,7,4,1,34,45.0
1754057288.776686,4,4.12,21.50,1.60,0,1100000,11100,000100000,-32765,0,0,0,0,0,0,-0.52,-3.08,-1.04,0.28,0.00,-0.47,0.00,0.00,0.00,122.0896464,37.5442190,-0.228,-0.220,-0.226,0.000,122.0895840,37.5442066,0.095,0.00,1.50,-151.61,-0.000,620.36,25,7,4,1,34,45.0
1754057288.896773,4,4.12,21.50,1.60,0,1100000,11100,000100000,-32765,0,0,0,0,0,0,-0.52,-3.05,-1.00,0.37,0.09,-0.31,0.00,0.00,0.00,122.0896464,37.5442190,-0.224,-0.221,-0.224,0.000,122.0895840,37.5442066,0.095,0.00,1.50,-151.61,-0.000,620.36,25,7,4,1,34,45.0
1754057289.021337,4,4.12,21.50,1.60,0,1100000,11100,000100000,-32765,0,0,0,0,0,0,-0.51,-3.01,-0.98,0.53,0.01,-0.10,0.00,0.00,0.00,122.0896464,37.5442190,-0.222,-0.221,-0.223,0.000,122.0895840,37.5442066,0.095,0.00,1.50,-151.61,-0.000,620.36,25,7,4,1,34,45.0
1754057289.136765,4,4.12,21.50,1.60,0,1100000,11100,000100000,-32765,0,0,0,0,0,0,-0.53,-2.86,-0.99,0.83,-0.19,0.10,0.00,0.00,0.00,122.0896464,37.5442190,-0.218,-0.221,-0.223,0.000,122.0895840,37.5442066,0.095,0.00,1.50,-151.61,-0.000,620.36,25,7,4,1,34,46.0
1754057289.256784,4,4.12,21.50,1.60,0,1100000,11100,000100000,-32765,0,0,0,0,0,0,-0.56,-2.76,-1.00,0.99,-0.26,0.06,0.01,0.00,0.00,122.0896464,37.5442190,-0.210,-0.219,-0.220,0.000,122.0895840,37.5442066,0.095,0.00,1.50,-151.61,-0.000,620.36,25,7,4,1,34,46.0
1754057289.376610,4,4.12,21.50,1.60,0,1100000,11100,000100000,-32765,0,0,0,0,0,0,-0.59,-2.65,-1.01,1.10,-0.28,-0.02,0.01,0.00,0.00,122.0896464,37.5442190,-0.192,-0.213,-0.213,0.000,122.0895840,37.5442066,0.095,0.00,1.50,-151.61,-0.000,620.36,25,7,4,1,34,46.0
1754057289.496693,4,4.12,21.50,1.62,0,1100000,11100,000100000,-32765,0,0,0,0,0,0,-0.62,-2.54,-1.00,1.08,-0.26,-0.07,0.01,0.00,0.00,122.0896464,37.5442190,-0.197,-0.210,-0.208,0.000,122.0895840,37.5442066,0.095,0.00,1.50,-151.61,-0.000,620.36,25,7,4,1,34,46.0
1754057289.623880,4,4.12,21.50,1.62,0,1100000,11100,000100000,-32765,0,0,0,0,0,0,-0.64,-2.45,-0.98,0.90,-0.23,-0.19,0.01,0.00,0.00,122.0896464,37.5442190,-0.194,-0.207,-0.202,0.000,122.0895840,37.5442066,0.095,0.00,1.50,-151.61,-0.000,620.36,25,7,4,1,34,46.0
1754057289.770224,4,4.12,21.50,1.63,0,1100000,11100,000100000,-32765,0,0,0,0,0,0,-0.73,-2.32,-0.91,0.51,-0.56,-0.47,0.01,0.00,0.00,122.0896464,37.5442190,-0.210,-0.208,-0.201,0.000,122.0895840,37.5442066,0.095,0.00,1.50,-151.61,-0.000,620.36,25,7,4,1,34,46.0
1754057289.854999,4,4.12,21.50,1.63,0,1100000,11100,000100000,-32765,0,0,0,0,0,0,-0.80,-2.28,-0.85,0.42,-0.72,-0.56,0.00,0.00,0.00,122.0896464,37.5442190,-0.217,-0.209,-0.202,0.000,122.0895840,37.5442066,0.095,0.00,1.50,-151.61,-0.000,620.36,25,7,4,1,34,46.0
1754057289.976380,4,4.22,21.50,1.63,0,1100000,11100,000100000,-32765,0,0,0,0,0,0,-0.87,-2.24,-0.80,0.42,-0.69,-0.56,0.00,0.00,0.00,122.0896464,37.5442190,-0.216,-0.211,-0.207,0.000,122.0895840,37.5442066,0.095,0.00,1.50,-151.61,-0.000,620.36,25,7,4,1,34,46.0
1754057290.096660,4,4.22,21.50,1.63,0,1100000,11100,000100000,-32765,0,0,0,0,0,0,-0.92,-2.20,-0.74,0.41,-0.38,-0.56,0.00,0.00,0.00,122.0896464,37.5442191,-0.209,-0.210,-0.209,0.000,122.0895840,37.5442066,0.095,0.00,1.50,-151.61,-0.000,620.36,25,7,4,1,34,46.0
1754057290.221343,4,4.22,21.50,1.63,0,1100000,11100,000100000,-32765,0,0,0,0,0,0,-0.93,-2.15,-0.69,0.45,-0.05,-0.50,0.00,0.00,0.00,122.0896464,37.5442191,-0.204,-0.209,-0.211,0.000,122.0895840,37.5442066,0.095,0.00,1.50,-151.61,43018416365166964552744566784.000,620.36,25,7,4,1,34,47.0
1754057290.336854,4,4.22,21.50,1.63,0,1100000,11100,000100000,-32765,0,0,0,0,0,0,-0.88,-2.03,-0.62,0.72,0.45,-0.18,0.00,0.00,0.00,122.0896464,37.5442191,-0.209,-0.209,-0.211,0.000,122.0895840,37.5442066,0.095,0.00,1.50,-151.61,0.000,620.36,25,7,4,1,34,47.0
1754057290.456733,4,4.22,21.50,1.60,0,1100000,11100,000100000,-32765,0,0,0,0,0,0,-0.81,-1.95,-0.63,0.87,0.71,0.14,0.00,0.00,0.00,122.0896464,37.5442191,-0.210,-0.209,-0.210,0.000,122.0895840,37.5442066,0.095,0.00,1.50,-151.61,-36175872.000,620.36,25,7,4,1,34,47.0
1754057290.576648,4,4.22,21.50,1.60,0,1100000,11100,000100000,-32765,0,0,0,0,0,0,-0.73,-1.85,-0.66,1.06,0.95,0.32,0.00,0.00,0.00,122.0896464,37.5442191,-0.217,-0.211,-0.210,0.000,122.0895840,37.5442066,0.095,0.00,1.50,-151.61,11195890101215722074018882709880832.000,620.36,25,7,4,1,34,47.0
1754057290.696861,4,4.22,21.50,1.61,0,1100000,11100,000100000,-32765,0,0,0,0,0,0,-0.62,-1.75,-0.69,0.93,1.09,0.17,0.01,0.00,0.00,122.0896464,37.5442191,-0.223,-0.213,-0.212,0.000,122.0895840,37.5442066,0.095,0.00,1.50,-151.61,0.000,620.36,25,7,4,1,34,47.0
1754057290.824858,4,4.22,21.50,1.61,0,1100000,11100,000100000,-32765,0,0,0,0,0,0,-0.51,-1.68,-0.68,0.56,1.04,-0.18,0.01,0.00,0.00,122.0896464,37.5442191,-0.220,-0.215,-0.216,0.000,122.0895840,37.5442066,0.095,0.00,1.50,-151.61,-173668132231267428005048339136512.000,620.36,25,7,4,1,34,47.0
1754057290.936894,4,4.22,21.50,1.61,0,1100000,11100,000100000,-32765,0,0,0,0,0,0,-0.29,-1.62,-0.63,0.32,1.22,-0.12,0.01,0.00,0.00,122.0896464,37.5442192,-0.224,-0.216,-0.219,0.000,122.0895840,37.5442066,0.095,0.00,1.50,-151.61,-2.141,620.36,25,7,4,1,34,47.0
1754057291.057257,4,4.22,21.50,1.61,0,1100000,11100,000100000,-32765,0,0,0,0,0,0,-0.15,-1.59,-0.65,0.15,1.46,0.32,0.01,0.00,0.00,122.0896464,37.5442192,-0.221,-0.217,-0.221,0.000,122.0895840,37.5442066,0.095,0.00,1.50,-151.61,-0.000,620.36,25,7,4,1,34,47.0
1754057291.176760,4,4.22,21.50,1.60,0,1100000,11100,000100000,-32765,0,0,0,0,0,0,0.00,-1.59,-0.71,0.03,1.37,0.73,0.01,0.00,0.00,122.0896464,37.5442192,-0.219,-0.218,-0.221,0.000,122.0895840,37.5442066,0.095,0.00,1.50,-151.61,-0.000,620.36,25,7,4,1,34,48.0
1754057291.296876,4,4.22,21.50,1.60,0,1100000,11100,000100000,-32765,0,0,0,0,0,0,0.08,-1.59,-0.79,-0.04,0.88,0.72,0.00,0.00,0.00,122.0896464,37.5442192,-0.218,-0.218,-0.220,0.000,122.0895840,37.5442066,0.095,0.00,1.50,-151.61,-0.000,620.36,25,7,4,1,34,48.0
1754057291.421400,4,4.22,21.50,1.60,0,1100000,11100,000100000,-32765,0,0,0,0,0,0,0.13,-1.60,-0.84,-0.18,0.31,0.45,0.00,0.00,0.00,122.0896464,37.5442192,-0.217,-0.218,-0.220,0.000,122.0895840,37.5442066,0.095,0.00,1.50,-151.61,-0.000,620.36,25,7,4,1,34,48.0
1754057291.536901,4,4.22,21.50,1.60,0,1100000,11100,000100000,-32765,0,0,0,0,0,0,0.06,-1.64,-0.83,-0.09,-0.85,-0.24,0.00,0.00,0.00,122.0896464,37.5442192,-0.207,-0.215,-0.216,0.000,122.0895840,37.5442066,0.095,0.00,1.50,-151.61,-36775657472.000,620.36,25,7,4,1,34,48.0
1754057291.656408,4,4.22,21.50,1.66,0,1100000,11100,000100000,-32765,0,0,0,0,0,0,-0.04,-1.63,-0.81,0.08,-1.26,-0.20,0.01,0.00,0.00,122.0896464,37.5442192,-0.202,-0.213,-0.212,0.000,122.0895840,37.5442066,0.095,0.00,1.50,-151.61,-143654912.000,620.36,25,7,4,1,34,48.0
1754057291.776753,4,4.22,21.50,1.66,0,1100000,11100,000100000,-32765,0,0,0,0,0,0,-0.17,-1.63,-0.80,0.03,-1.19,0.00,0.01,0.00,0.00,122.0896464,37.5442192,-0.198,-0.210,-0.208,0.000,122.0895840,37.5442066,0.095,0.00,1.50,-151.61,-561152.000,620.36,25,7,4,1,34,48.0
